name,lat,lng
New York,40.6943,-73.9249
Los Angeles,34.1141,-118.4068
Chicago,41.8375,-87.6866
Miami,25.784,-80.2101
Dallas,32.7935,-96.7667
Houston,29.786,-95.3885
Philadelphia,40.0077,-75.1339
Atlanta,33.7628,-84.422
Washington,38.9047,-77.0163
Boston,42.3188,-71.0852
Phoenix,33.5722,-112.0892
Detroit,42.3834,-83.1024
Seattle,47.6211,-122.3244
San Francisco,37.7558,-122.4449
San Diego,32.8313,-117.1222
Minneapolis,44.9635,-93.2678
Brooklyn,40.6501,-73.9496
Tampa,27.9945,-82.4447
Denver,39.762,-104.8758
Queens,40.7498,-73.7976
Baltimore,39.3051,-76.6144
Las Vegas,36.2333,-115.2654
St. Louis,38.6359,-90.2451
Portland,45.5371,-122.65
Riverside,33.9381,-117.3949
Orlando,28.4773,-81.337
Sacramento,38.5677,-121.4685
San Juan,18.3985,-66.061
San Antonio,29.4632,-98.5238
San Jose,37.3012,-121.848
Pittsburgh,40.4397,-79.9763
Cincinnati,39.1413,-84.506
Manhattan,40.7834,-73.9662
Cleveland,41.4764,-81.6805
Indianapolis,39.7771,-86.1458
Austin,30.3005,-97.7522
Kansas City,39.1238,-94.5541
Columbus,39.9862,-82.9855
Charlotte,35.2083,-80.8303
Virginia Beach,36.7335,-76.0435
Bronx,40.8501,-73.8662
Milwaukee,43.0642,-87.9675
Providence,41.823,-71.4187
Jacksonville,30.3322,-81.6749
Salt Lake City,40.7776,-111.9311
Nashville,36.1715,-86.7842
Raleigh,35.8324,-78.6429
Memphis,35.1087,-89.9663
Louisville,38.1663,-85.6485
Richmond,37.5295,-77.4756
Buffalo,42.9018,-78.8487
Oklahoma City,35.4676,-97.5136
Bridgeport,41.1918,-73.1954
New Orleans,30.0687,-89.9288
Fort Worth,32.7817,-97.3474
Hartford,41.7661,-72.6834
Tucson,32.1541,-110.8787
Honolulu,21.3294,-157.846
McAllen,26.2252,-98.2467
Omaha,41.2627,-96.0529
El Paso,31.8476,-106.43
Albuquerque,35.1054,-106.6465
Rochester,43.168,-77.6162
Sarasota,27.3387,-82.5432
Fresno,36.783,-119.7939
Tulsa,36.1283,-95.9042
Allentown,40.5961,-75.4756
Dayton,39.7805,-84.2003
Birmingham,33.5279,-86.7971
Charleston,32.8168,-79.9687
Cape Coral,26.6443,-81.9957
Columbia,34.0378,-80.9036
Concord,37.9722,-122.0016
Colorado Springs,38.8674,-104.7605
Springfield,42.1155,-72.5395
Knoxville,35.9692,-83.9496
Baton Rouge,30.442,-91.1311
Ogden,41.2279,-111.9682
Grand Rapids,42.9619,-85.6562
Albany,42.6664,-73.7987
Bakersfield,35.3529,-119.0359
Mission Viejo,33.6096,-117.6551
New Haven,41.3113,-72.9246
Worcester,42.2705,-71.8079
Provo,40.2457,-111.6457
Akron,41.0798,-81.5219
Palm Bay,27.9631,-80.6593
Des Moines,41.5725,-93.6105
Murrieta,33.5719,-117.1909
Mesa,33.4015,-111.7178
Staten Island,40.5834,-74.1496
Wichita,37.6895,-97.3443
Toledo,41.6638,-83.5827
Harrisburg,40.2752,-76.8843
Port St. Lucie,27.2796,-80.3884
Long Beach,33.7977,-118.167
Reno,39.5497,-119.8483
Madison,43.0822,-89.393
Little Rock,34.7256,-92.3577
Greenville,34.8354,-82.3646
Denton,33.2175,-97.1418
Spokane,47.6671,-117.433
Oakland,37.7904,-122.2166
Lancaster,40.042,-76.3012
Poughkeepsie,41.695,-73.9211
Boise,43.6005,-116.2308
Winston-Salem,36.1029,-80.261
Syracuse,43.0407,-76.1437
Augusta,33.3645,-82.0708
Stockton,37.9765,-121.3109
Palm Coast,29.5389,-81.2457
Chattanooga,35.066,-85.2481
Kissimmee,28.3041,-81.4169
Durham,35.9792,-78.9022
Arlington,32.6998,-97.125
Victorville,34.5277,-117.3536
Aurora,39.7083,-104.7237
Modesto,37.6375,-121.0028
Lancaster,34.6935,-118.1753
Fayetteville,36.0714,-94.1661
Scranton,41.4044,-75.6649
Oxnard,34.1964,-119.1815
Youngstown,41.0993,-80.6463
Indio,33.7346,-116.2346
Pensacola,30.4413,-87.1911
Anaheim,33.839,-117.8574
Bonita Springs,26.3558,-81.7859
Greensboro,36.0956,-79.8271
Huntsville,34.6981,-86.6412
Corpus Christi,27.7254,-97.3767
Fort Wayne,41.0888,-85.1436
Fayetteville,35.085,-78.9772
Ann Arbor,42.2759,-83.731
Jackson,32.3157,-90.2125
Antioch,37.9787,-121.796
Mobile,30.6782,-88.1162
Lexington,38.0423,-84.4587
Asheville,35.5707,-82.5537
Trenton,40.2237,-74.7641
Santa Rosa,38.4458,-122.7067
Santa Ana,33.7367,-117.8819
Lansing,42.7142,-84.5601
Henderson,36.0133,-115.0381
St. Paul,44.9478,-93.1039
Lakeland,28.0557,-81.9545
Newark,40.7245,-74.1725
Fort Collins,40.5477,-105.0656
Reading,40.34,-75.9267
Springfield,37.1943,-93.2916
Irvine,33.6772,-117.7738
Anchorage,61.1508,-149.1091
The Woodlands,30.1738,-95.5134
South Bend,41.6767,-86.2696
Rockford,42.2596,-89.064
Savannah,32.0286,-81.1821
Lincoln,40.8099,-96.6784
Jersey City,40.7184,-74.0686
Round Lake Beach,42.3791,-88.0811
Flint,43.0236,-83.6921
Shreveport,32.4653,-93.7955
Plano,33.0502,-96.7486
Myrtle Beach,33.7094,-78.8844
Davenport,41.5565,-90.6053
Canton,40.8078,-81.3676
Santa Clarita,34.4175,-118.4964
Chula Vista,32.6281,-117.0144
Eugene,44.0564,-123.1174
Chandler,33.2825,-111.8514
Salem,44.9233,-123.0244
Concord,35.3933,-80.6369
Gilbert,33.31,-111.7463
Columbus,32.51,-84.8771
Aguadilla,18.4382,-67.1537
Lubbock,33.5657,-101.8879
North Las Vegas,36.2883,-115.0888
St. Petersburg,27.7931,-82.6652
Tallahassee,30.4551,-84.2527
Laredo,27.5625,-99.4874
Peoria,40.752,-89.6154
Avondale,33.3873,-112.3235
Lafayette,30.2082,-92.0325
Irving,32.8583,-96.9702
Montgomery,32.3482,-86.2668
Visalia,36.3276,-119.3269
McKinney,33.2016,-96.667
Wilmington,34.2099,-77.8866
Chesapeake,36.6778,-76.3023
Glendale,33.5791,-112.2311
Garland,32.91,-96.6304
Kennewick,46.1978,-119.1732
Winter Haven,28.0118,-81.7014
Scottsdale,33.6872,-111.8651
Norfolk,36.8945,-76.259
Killeen,31.0753,-97.7297
York,39.9651,-76.7315
Atlantic City,39.3797,-74.4527
Nashua,42.7491,-71.491
Arlington,38.8786,-77.1011
Brownsville,25.9975,-97.458
Fremont,37.5265,-121.9843
Gulfport,30.4274,-89.0704
Evansville,37.9881,-87.5341
Hialeah,25.8696,-80.3045
Navarre,30.4174,-86.8907
Bel Air South,39.5022,-76.3113
North Port,27.0576,-82.1977
San Bernardino,34.1416,-117.2943
Portland,43.6773,-70.2715
Enterprise,36.0091,-115.2278
Bremerton,47.5436,-122.7121
Green Bay,44.5148,-87.9895
Appleton,44.278,-88.3892
Spring Valley,36.0952,-115.2636
Tacoma,47.2431,-122.4531
Spartanburg,34.9442,-81.9251
Roanoke,37.2785,-79.9581
Gainesville,29.6804,-82.3459
Deltona,28.905,-81.2137
Kalamazoo,42.2749,-85.5882
Thousand Oaks,34.1914,-118.8756
Hickory,35.741,-81.3223
Yonkers,40.9466,-73.8673
Moreno Valley,33.9244,-117.2045
Fontana,34.0968,-117.4599
College Station,30.5852,-96.2959
Fargo,46.8651,-96.8292
Amarillo,35.1984,-101.8316
Norwich,41.5495,-72.0882
Olympia,47.0417,-122.8959
Waterbury,41.5582,-73.0361
Salinas,36.6883,-121.6317
Huntington,38.4109,-82.4345
Huntington Beach,33.696,-118.0018
Clarksville,36.5692,-87.3413
Santa Barbara,34.4285,-119.7202
Glendale,34.1819,-118.2468
Sunrise Manor,36.1783,-115.0487
Grand Prairie,32.6871,-97.0208
Overland Park,38.887,-94.687
Hagerstown,39.6401,-77.7217
Nampa,43.5844,-116.5638
Gastonia,35.2494,-81.1854
Frisco,33.156,-96.8216
Cedar Rapids,41.9662,-91.6783
Hemet,33.7341,-116.9969
Paradise,36.0872,-115.1355
Sioux Falls,43.5396,-96.7311
Vancouver,45.6366,-122.5967
Peoria,33.7843,-112.2989
Waco,31.5599,-97.1882
Lorain,41.4409,-82.184
Erie,42.1167,-80.0733
Newport News,37.1051,-76.5185
Aurora,41.7638,-88.2902
Fort Lauderdale,26.1412,-80.1464
Vallejo,38.1125,-122.2342
Murfreesboro,35.849,-86.4121
Spring Hill,28.4798,-82.53
Tempe,33.3881,-111.9319
High Point,35.991,-79.9937
Medford,42.3372,-122.854
Danbury,41.4015,-73.4709
Elk Grove,38.4161,-121.3842
Ontario,34.0393,-117.6064
Frederick,39.4337,-77.4141
Vero Beach South,27.6132,-80.4163
Ocala,29.178,-82.1511
Oceanside,33.2247,-117.3083
Rancho Cucamonga,34.1247,-117.5667
Garden Grove,33.7787,-117.9601
Cary,35.7819,-78.8195
Pembroke Pines,26.0128,-80.3382
Bayamon,18.3794,-66.1635
Palmdale,34.5944,-118.1057
Manchester,42.9848,-71.4447
Lafayette,40.3991,-86.8593
Santa Cruz,36.9789,-122.0346
Marysville,48.0809,-122.1561
Muskegon,43.2281,-86.2562
Springfield,39.7709,-89.654
Hayward,37.6328,-122.0766
New Bedford,41.6697,-70.9428
Alexandria,38.8185,-77.0861
Paterson,40.9147,-74.1624
Corona,33.8616,-117.5649
Merced,37.3057,-120.4779
Warner Robins,32.5961,-83.6527
Port Arthur,29.8554,-93.9264
Macon,32.8065,-83.6974
Kansas City,39.1235,-94.7443
Lakewood,39.6977,-105.1172
Sunnyvale,37.3836,-122.0255
Fredericksburg,38.2992,-77.4872
Leesburg,28.7672,-81.8962
Champaign,40.1142,-88.2737
Hollywood,26.0293,-80.1679
Pasadena,29.6575,-95.1498
Pomona,34.0585,-117.7626
Escondido,33.1348,-117.0723
Joliet,41.5188,-88.1499
Lake Charles,30.201,-93.2111
Mesquite,32.7602,-96.5865
Mauldin,34.7821,-82.3032
Panama City,30.1995,-85.6003
Bellevue,47.5951,-122.1535
Naperville,41.748,-88.1659
Harlingen,26.1916,-97.6977
Tuscaloosa,33.2348,-87.5268
Elkhart,41.6916,-85.9627
Torrance,33.8346,-118.3416
Binghamton,42.1014,-75.9093
Houma,29.58,-90.7059
Topeka,39.0346,-95.6955
Roseville,38.7703,-121.3196
Fairfield,38.2583,-122.0335
Tyler,32.3184,-95.3062
Fullerton,33.8841,-117.9279
Pueblo,38.2701,-104.6114
Athens,33.9508,-83.3689
Santa Maria,34.9333,-120.4431
Surprise,33.6815,-112.4515
Charleston,38.3484,-81.6322
Las Cruces,32.3265,-106.7893
Metairie,29.9977,-90.178
Thornton,39.9197,-104.9438
Olathe,38.8833,-94.82
Carolina,18.4054,-65.9792
Gainesville,34.2902,-83.8294
West Valley City,40.6886,-112.0123
Orange,33.8038,-117.8218
Warren,42.4934,-83.027
Pasadena,34.1597,-118.139
Beaumont,30.0849,-94.1451
Burlington,36.076,-79.4685
Hampton,37.0551,-76.363
Columbia,38.9472,-92.3268
Yuma,32.5995,-114.5491
Elizabeth,40.6658,-74.1913
Racine,42.7274,-87.8135
Greeley,40.4152,-104.7706
Kent,47.3887,-122.2128
Stamford,41.1039,-73.5585
Odessa,31.8801,-102.3448
Bloomington,40.4757,-88.9703
Miramar,25.9773,-80.3351
Grand Junction,39.0877,-108.5673
Sterling Heights,42.5809,-83.0305
Coral Springs,26.2702,-80.2591
Johnson City,36.3406,-82.3806
Carrollton,32.989,-96.8999
Midland,32.0243,-102.1147
Yakima,46.5923,-120.5496
Bellingham,48.7548,-122.469
Yuba City,39.1357,-121.6383
South Lyon,42.4614,-83.6526
Santa Clara,37.3646,-121.968
St. George,37.0758,-113.5752
Fort Smith,35.3495,-94.3695
Simi Valley,34.2663,-118.749
Dover,39.161,-75.5202
Norman,35.2335,-97.3471
Abilene,32.4543,-99.7384
Billings,45.7891,-108.5526
Ponce,18.0127,-66.6212
Lehigh Acres,26.612,-81.6388
St. Cloud,45.534,-94.1718
Arecibo,18.4491,-66.7387
Kenosha,42.5865,-87.8773
Greenville,35.5943,-77.376
Arvada,39.832,-105.151
Pearland,29.5581,-95.3218
Independence,39.0871,-94.3501
Texas City,29.4154,-94.9682
Redding,40.5698,-122.365
Lynchburg,37.4003,-79.1909
Boulder,40.0248,-105.2524
Iowa City,41.6559,-91.5303
Rochester,44.0154,-92.478
Berkeley,37.8722,-122.276
Waldorf,38.6085,-76.9194
The Villages,28.9034,-81.9887
Duluth,46.7756,-92.1393
East Los Angeles,34.0326,-118.1691
Saginaw,43.4199,-83.9501
Clovis,36.8278,-119.683
Leominster,42.5209,-71.7717
Round Rock,30.527,-97.6642
Monroe,32.5185,-92.0774
Cambridge,42.3759,-71.1185
Clearwater,27.979,-82.7623
Seaside,36.6224,-121.8199
West Jordan,40.6024,-112.0008
Richardson,32.9716,-96.7093
West Palm Beach,26.7469,-80.132
Temple,31.1068,-97.3891
Burlington,44.4876,-73.2316
Richmond,37.9477,-122.3389
Westminster,39.8837,-105.0624
Pottstown,40.2508,-75.6445
Brandon,27.9367,-82.3
Rock Hill,34.9415,-81.0241
Meridian,43.6116,-116.3977
Coeur d'Alene,47.704,-116.7936
Carlsbad,33.1246,-117.2834
Lowell,42.6389,-71.3217
Waterloo,42.4918,-92.3522
North Charleston,32.9067,-80.0722
Gilroy,37.0046,-121.5854
Downey,33.9379,-118.1311
Gresham,45.5021,-122.4413
Elgin,42.0383,-88.324
Utica,43.0962,-75.2261
Broken Arrow,36.038,-95.7806
Costa Mesa,33.6667,-117.9135
Chico,39.7578,-121.8161
Sioux City,42.4959,-96.3901
League City,29.4874,-95.1087
Miami Gardens,25.9433,-80.2426
Pompano Beach,26.2428,-80.1312
San Buenaventura,34.2741,-119.2314
Everett,47.9525,-122.1669
El Centro,32.7865,-115.5595
Sugar Land,29.5935,-95.6358
El Monte,34.0739,-118.0291
Lewisville,33.0454,-96.9815
West Covina,34.0555,-117.9113
Temecula,33.4928,-117.1315
Bend,44.0563,-121.3095
Salisbury,38.3756,-75.5865
Jacksonville,34.7289,-77.3941
Inglewood,33.9566,-118.3444
Dearborn,42.3127,-83.213
Centennial,39.5926,-104.8673
Burbank,34.1879,-118.3235
Sparks,39.5736,-119.7161
Sandy Springs,33.9366,-84.3703
Bloomington,39.1637,-86.5257
Logan,41.7399,-111.8422
Kailua,21.392,-157.7396
El Cajon,32.8017,-116.9604
Hillsboro,45.5273,-122.936
South Fulton,33.6273,-84.58
Renton,47.4784,-122.1918
Mandeville,30.3751,-90.0904
San Mateo,37.5522,-122.3121
Columbia,39.2004,-76.859
Daly City,37.6862,-122.4685
Davie,26.0789,-80.287
Jurupa Valley,34.001,-117.4706
Brockton,42.0821,-71.0242
Longmont,40.1686,-105.1005
Rialto,34.1175,-117.3892
San German,18.0827,-67.046
Eau Claire,44.8197,-91.4948
Turlock,37.5053,-120.8588
Norwalk,33.9069,-118.0829
Highlands Ranch,39.5419,-104.9708
Allen,33.1088,-96.6735
Wichita Falls,33.9072,-98.5291
Rio Rancho,35.2873,-106.6982
Vacaville,38.3587,-121.9673
Spokane Valley,47.6626,-117.2346
Charlottesville,38.0375,-78.4855
Idaho Falls,43.4871,-112.0362
Menifee,33.6909,-117.1849
Lee's Summit,38.9171,-94.3816
Quincy,42.2506,-71.0187
San Angelo,31.4424,-100.4504
Lynn,42.4781,-70.9664
Holland,42.7677,-86.0984
Federal Way,47.3091,-122.3358
Manteca,37.7927,-121.2264
Lafayette,39.9946,-105.0998
Santa Fe,35.6619,-105.9819
Hesperia,34.3975,-117.3147
La Crosse,43.8241,-91.2268
Riverview,27.8227,-82.3023
Kingsport,36.5224,-82.5454
Edinburg,26.3196,-98.1597
Vista,33.1896,-117.2386
Bowling Green,36.9716,-86.4378
Carmel,39.965,-86.146
Longview,32.5193,-94.7622
Tracy,37.7269,-121.4523
Prescott Valley,34.598,-112.3185
Beaverton,45.4779,-122.8168
Portsmouth,43.058,-70.7826
Portsmouth,36.8468,-76.354
Fishers,39.9588,-85.9659
Orem,40.2981,-111.6994
Sandy,40.5709,-111.8506
Sunrise,26.1547,-80.2997
San Tan Valley,33.1786,-111.5629
Compton,33.893,-118.2274
Arden-Arcade,38.6017,-121.3845
Hanford,36.3274,-119.6549
Boca Raton,26.3752,-80.108
Middletown,39.5033,-84.3659
Livonia,42.3972,-83.3733
Carson,33.8374,-118.2559
Lawrence,38.9597,-95.2642
Slidell,30.2887,-89.7828
Blacksburg,37.23,-80.4279
San Marcos,33.135,-117.1743
Goodyear,33.2614,-112.3622
Edmond,35.6689,-97.416
Mayaguez,18.2003,-67.1397
Fall River,41.7136,-71.1015
South Gate,33.9447,-118.1926
Suffolk,36.6953,-76.6398
Terre Haute,39.466,-87.3751
Missoula,46.8751,-114.0214
Santa Monica,34.0235,-118.481
Roswell,34.0391,-84.3513
Vineland,39.4653,-74.9981
Plantation,26.1259,-80.2617
Alafaya,28.528,-81.1868
Kirkland,47.697,-122.2057
Hoover,33.3763,-86.8068
Westminster,33.7523,-117.9938
Lawton,34.6175,-98.4202
San Leandro,37.7074,-122.1599
Auburn,32.6087,-85.4903
Norwalk,41.1144,-73.4215
O'Fallon,38.785,-90.7175
Chino,33.9836,-117.6654
Germantown,39.1755,-77.2643
Dover,43.1887,-70.8845
Bismarck,46.8143,-100.7694
Waukegan,42.3698,-87.8716
Buckeye,33.4314,-112.6429
Town 'n' Country,28.0106,-82.5763
Clifton,40.863,-74.1575
Bloomington,44.8306,-93.3151
Mount Pleasant,32.8537,-79.8203
Florence,34.178,-79.7898
Newton,42.3316,-71.2085
State College,40.7909,-77.8567
Livermore,37.6868,-121.7607
Rapid City,44.0716,-103.2204
Decatur,39.8557,-88.9342
Dalton,34.769,-84.972
Conroe,30.3238,-95.4824
Hawthorne,33.9147,-118.3476
Lawrence,42.7002,-71.1626
New Braunfels,29.6994,-98.1148
Citrus Heights,38.6948,-121.288
Jackson,42.2431,-84.4038
Whittier,33.9678,-118.0188
Muncie,40.1989,-85.395
Troy,42.5817,-83.1457
Homosassa Springs,28.8119,-82.5392
Port Huron,42.9821,-82.4388
Napa,38.2975,-122.301
Deerfield Beach,26.305,-80.1277
Springdale,36.1901,-94.1574
Newport Beach,33.6151,-117.8668
Anderson,40.0891,-85.6892
San Ramon,37.7624,-121.9365
Lake Forest,33.6605,-117.6714
Mission,26.2039,-98.3256
Auburn,47.3039,-122.2108
Brooklyn Park,45.1112,-93.3505
Bryan,30.665,-96.3807
Springfield,39.93,-83.7959
Hattiesburg,31.3074,-89.317
Westland,42.3192,-83.3805
Cicero,41.8445,-87.7593
Albany,31.5776,-84.1762
Fort Myers,26.6194,-81.8302
Pine Hills,28.5818,-81.4692
Atascocita,29.9777,-95.1953
Buena Park,33.8572,-118.0046
Redwood City,37.5025,-122.2253
Farmington Hills,42.486,-83.3771
Alton,38.9037,-90.152
Melbourne,28.1086,-80.6627
Miami Beach,25.8171,-80.1396
Alhambra,34.084,-118.1355
Williamsburg,37.2693,-76.7076
Madera,36.963,-120.0778
Warwick,41.7062,-71.4334
Cranston,41.7658,-71.4858
Baytown,29.7587,-94.9671
Largo,27.9088,-82.7712
Silver Spring,39.0028,-77.0207
Lakewood,33.8471,-118.1222
Mountain View,37.4001,-122.0796
Kankakee,41.102,-87.8643
Johns Creek,34.0333,-84.2027
Flagstaff,35.1872,-111.6194
Franklin,35.92,-86.8516
Joplin,37.0757,-94.5018
Parma,41.3843,-81.7286
Layton,41.077,-111.962
New Rochelle,40.9304,-73.7836
Anderson,34.5211,-82.6478
Lebanon,40.3412,-76.4228
Somerville,42.3908,-71.1014
Yauco,18.0344,-66.8615
St. Joseph,39.7598,-94.821
Plymouth,45.0225,-93.4617
Tustin,33.7311,-117.8107
Zephyrhills,28.2409,-82.1797
Milpitas,37.4336,-121.8921
Florence,34.8303,-87.6655
Pleasanton,37.6663,-121.8805
Boynton Beach,26.5281,-80.0811
Texarkana,33.45,-94.0847
Folsom,38.6668,-121.1422
Bellflower,33.888,-118.1271
Pharr,26.1685,-98.1904
Homestead,25.4665,-80.4472
Valdosta,30.8502,-83.2788
Upland,34.1178,-117.6604
Evanston,42.0464,-87.6943
Newark,40.0706,-82.425
Elizabethtown,37.7031,-85.8773
St. Augustine,29.8976,-81.31
Rancho Cordova,38.5737,-121.2527
Alameda,37.7668,-122.267
Chino Hills,33.9508,-117.7254
Perris,33.7898,-117.2233
Schaumburg,42.0308,-88.0838
Kendall,25.6697,-80.3556
Camarillo,34.223,-119.0321
Anniston,33.6712,-85.8135
Sumter,33.9392,-80.393
Jonesboro,35.8212,-90.6791
Hammond,41.6168,-87.4909
Carmichael,38.6318,-121.3263
Arlington Heights,42.0955,-87.9826
Morgantown,39.6383,-79.9464
Wyoming,42.8908,-85.7066
Cheyenne,41.135,-104.7902
Pasco,46.2506,-119.1305
Watsonville,36.9206,-121.7708
Southfield,42.4765,-83.2605
Wausau,44.962,-89.6459
Rochester Hills,42.6645,-83.1563
Loveland,40.4166,-105.0623
Alexandria,31.2923,-92.4702
Pittsburg,38.0182,-121.8965
Hammond,30.5061,-90.4563
South Jordan,40.557,-111.9784
Battle Creek,42.2985,-85.2296
Bethlehem,40.6266,-75.3679
Fajardo,18.3331,-65.6589
Davis,38.5553,-121.737
Apple Valley,34.5352,-117.2109
Pawtucket,41.8744,-71.3743
Wheeling,40.0752,-80.6951
Flower Mound,33.0343,-97.1146
Harrisonburg,38.4362,-78.8735
Cedar Park,30.5105,-97.8197
Oshkosh,44.0227,-88.5619
Winchester,39.1735,-78.1746
Caguas,18.2319,-66.0388
Ellicott City,39.2774,-76.8345
Pocatello,42.8724,-112.4647
Hilton Head Island,32.1896,-80.7499
New Britain,41.6759,-72.7862
Mansfield,40.7656,-82.5275
Woodbury,44.9057,-92.923
Lauderhill,26.1605,-80.2241
Lehi,40.4136,-111.8725
Bolingbrook,41.6901,-88.1021
Dale City,38.6473,-77.3459
Missouri City,29.563,-95.5365
Lake Jackson,29.0516,-95.4521
Altoona,40.5082,-78.4007
Doral,25.8152,-80.3565
Owensboro,37.7575,-87.1172
Centreville,38.839,-77.4389
Mount Vernon,40.9136,-73.8291
Baldwin Park,34.0829,-117.9722
Broomfield,39.9542,-105.0526
Redlands,34.0512,-117.1712
Cleveland,35.1817,-84.8707
Dothan,31.2336,-85.407
Camden,39.9361,-75.1073
Redmond,47.6763,-122.1169
Framingham,42.3085,-71.4368
Jackson,35.6538,-88.8354
Janesville,42.6854,-89.0135
Juana Diaz,18.0532,-66.5044
Mansfield,32.569,-97.1213
Waukesha,43.0087,-88.2464
Tamarac,26.2056,-80.2539
Wenatchee,47.436,-120.3295
Daytona Beach,29.1995,-81.0982
Castle Rock,39.3763,-104.8535
Redondo Beach,33.8577,-118.3765
Wilmington,39.7415,-75.5416
San Marcos,29.8734,-97.9356
Union City,37.6032,-122.0181
Eldersburg,39.4041,-76.9528
Conway,35.0753,-92.4692
Bayonne,40.6668,-74.1158
Guaynabo,18.3832,-66.1134
Rocklin,38.8075,-121.2489
Passaic,40.8574,-74.1282
Sheboygan,43.7403,-87.7316
Casas Adobes,32.3423,-111.0113
St. Charles,38.7954,-90.5157
Maple Grove,45.1089,-93.4626
Walnut Creek,37.9024,-122.0399
Dublin,37.7161,-121.8963
North Richland Hills,32.8604,-97.218
Gary,41.5905,-87.3473
Glen Burnie,39.156,-76.6071
Bristol,36.5572,-82.2154
Decatur,34.5731,-86.9905
West Bend,43.4173,-88.1818
Lodi,38.1218,-121.2932
Lima,40.741,-84.112
Florida,18.3643,-66.5611
Lakeville,44.6774,-93.252
Blaine,45.1696,-93.2077
Poinciana,28.1217,-81.4821
East Orange,40.7651,-74.2117
Noblesville,40.0355,-86.0042
Gaithersburg,39.1346,-77.2131
Lake Elsinore,33.6847,-117.3344
Palo Alto,37.3905,-122.1468
Eastvale,33.9617,-117.5803
Tulare,36.1995,-119.34
Rogers,36.317,-94.1531
Yorba Linda,33.889,-117.7714
Parkersburg,39.2623,-81.542
Eagan,44.817,-93.1638
Weston,26.1006,-80.4054
Longview,46.1461,-122.963
Bay City,43.5902,-83.8887
Dubuque,42.5002,-90.707
Union City,40.7675,-74.0323
Porterville,36.0643,-119.0338
Mount Vernon,48.4203,-122.3115
Palatine,42.118,-88.043
El Paso de Robles,35.6394,-120.656
West Des Moines,41.5521,-93.7806
Lynwood,33.924,-118.2016
Skokie,42.036,-87.74
Sherman,33.6273,-96.6221
Rockville,39.0834,-77.1553
Haverhill,42.7838,-71.0871
Hanover,39.8118,-76.9836
Shawnee,39.0158,-94.8076
Rome,34.2662,-85.1863
Schenectady,42.8025,-73.9275
South Hill,47.1198,-122.2853
DeKalb,41.9314,-88.7481
Petaluma,38.2423,-122.6266
Sammamish,47.6017,-122.0416
Georgetown,30.666,-97.6966
Carbondale,37.7221,-89.2237
Delray Beach,26.455,-80.0905
Dundalk,39.2704,-76.4942
Kenner,30.0109,-90.2549
Albany,44.6272,-123.0965
Ankeny,41.7288,-93.6031
South San Francisco,37.6538,-122.4196
Castro Valley,37.7088,-122.0626
Bethesda,38.9866,-77.1188
Saratoga Springs,43.0674,-73.7775
Corvallis,44.5698,-123.2779
Brentwood,40.7839,-73.2522
Ames,42.0256,-93.6217
Glens Falls,43.3109,-73.6458
Michigan City,41.7092,-86.869
Victoria,28.8287,-96.9849
Malden,42.4305,-71.0576
Weirton,40.406,-80.5671
Novi,42.4786,-83.4893
Guayama,17.9743,-66.1104
Alpharetta,34.0704,-84.2738
Wesley Chapel,28.2106,-82.3238
Waltham,42.3889,-71.2423
Laguna Niguel,33.5275,-117.705
San Clemente,33.4499,-117.6102
North Little Rock,34.7807,-92.2371
Fairbanks,64.8353,-147.6533
Florence-Graham,33.9682,-118.2447
Eden Prairie,44.8488,-93.4595
Twin Rivers,40.2631,-74.4917
Pflugerville,30.4515,-97.6018
Casper,42.842,-106.3208
Burnsville,44.7648,-93.2793
Grand Forks,47.9214,-97.0884
Brentwood,37.9356,-121.719
Millcreek,40.6892,-111.8292
Elmira,42.0938,-76.8097
Sebring,27.477,-81.453
La Habra,33.9282,-117.9515
Coon Rapids,45.1755,-93.3094
Bossier City,32.5224,-93.6668
Hamilton,39.3939,-84.5653
Taylor,42.226,-83.2688
Lakewood,47.1628,-122.5299
Greenwood,39.6019,-86.1073
Bellevue,41.1485,-95.939
Montebello,34.0155,-118.1108
Moore,35.3293,-97.4757
Council Bluffs,41.2369,-95.8516
Rowlett,32.9155,-96.5489
Spring,30.0613,-95.383
Port Charlotte,26.9918,-82.114
Reston,38.9497,-77.3461
Pico Rivera,33.9901,-118.0888
Dearborn Heights,42.3164,-83.2769
Port Orange,29.1085,-81.0137
Encinitas,33.0492,-117.261
Springfield,44.0538,-122.9811
Great Falls,47.5022,-111.2996
Rocky Mount,35.9685,-77.804
Commerce City,39.8641,-104.843
Pontiac,42.6493,-83.2878
The Hammocks,25.67,-80.4482
Wellington,26.6461,-80.2699
San Rafael,37.9905,-122.5221
Monterey Park,34.0497,-118.1326
La Mesa,32.7703,-117.0204
Woodland,38.6712,-121.75
Marietta,33.9533,-84.5422
Chapel Hill,35.9271,-79.0391
Gardena,33.8943,-118.3072
Meriden,41.5369,-72.7946
Bristol,41.6812,-72.9407
Revere,42.4189,-71.004
Medford,42.4234,-71.1087
Palm Harbor,28.0847,-82.7481
Cupertino,37.3168,-122.0466
Jupiter,26.92,-80.1128
Hendersonville,36.3063,-86.5997
North Miami,25.9008,-80.1686
Des Plaines,42.0345,-87.9008
Taylorsville,40.6569,-111.9493
West Allis,43.0068,-88.0296
Sanford,28.7891,-81.2757
Huntersville,35.406,-80.8716
Euless,32.8508,-97.08
Richland,46.2824,-119.2939
Santee,32.8554,-116.9851
White Plains,41.022,-73.7547
Hoboken,40.7452,-74.0281
Kokomo,40.464,-86.1277
Taunton,41.9036,-71.0943
St. Clair Shores,42.4925,-82.8961
Towson,39.3944,-76.619
Caldwell,43.6453,-116.6594
South Whittier,33.9336,-118.0312
Orland Park,41.6075,-87.8619
Stonecrest,33.6842,-84.1372
Palm Beach Gardens,26.8466,-80.1679
Royal Oak,42.5084,-83.1539
Margate,26.2466,-80.2119
Blue Springs,39.0124,-94.2721
Shoreline,47.7564,-122.3426
Midwest City,35.463,-97.371
Bowie,38.9549,-76.7406
Apex,35.7237,-78.8743
Oak Lawn,41.7139,-87.7528
Carson City,39.1511,-119.7476
Fountainebleau,25.7723,-80.346
Queen Creek,33.2454,-111.6173
Leander,30.5728,-97.8618
Bartlett,35.2337,-89.8195
St. Cloud,28.2363,-81.2779
Coconut Creek,26.2803,-80.1842
Kettering,39.6956,-84.1494
Parker,39.5084,-104.7753
St. Peters,38.7825,-90.6061
Fountain Valley,33.7105,-117.9514
Maricopa,33.0408,-112.0011
Berwyn,41.8433,-87.7909
National City,32.6654,-117.0983
Lenexa,38.9609,-94.8018
Highland,34.1113,-117.165
Arcadia,34.1342,-118.0373
Mount Prospect,42.0641,-87.9375
Lake Havasu City,34.5006,-114.3113
Tinley Park,41.567,-87.8049
DeSoto,32.5992,-96.8633
New Brunswick,40.487,-74.445
Chicopee,42.1764,-72.5719
Madison,34.7114,-86.7626
West Haven,41.2739,-72.9672
Smyrna,33.8633,-84.5168
Huntington Park,33.98,-118.2167
Wylie,33.0362,-96.5161
Diamond Bar,33.9992,-117.8161
Apple Valley,44.7457,-93.2004
Perth Amboy,40.5202,-74.2724
Bradenton,27.4901,-82.5757
Brookhaven,33.8743,-84.3314
Hacienda Heights,33.997,-117.9727
Manhattan,39.1886,-96.6048
Tigard,45.4237,-122.7845
Tamiami,25.7556,-80.4016
Yucaipa,34.0336,-117.0429
Westchester,25.7471,-80.3523
Peabody,42.5335,-70.9725
Plainfield,40.6154,-74.4157
Southaven,34.9514,-89.9786
Apopka,28.7015,-81.5316
Oak Park,41.8872,-87.7899
Horizon West,28.4417,-81.6146
Severn,39.1355,-76.6956
Paramount,33.8977,-118.1651
Colton,34.0538,-117.3255
Kentwood,42.8852,-85.5926
Aspen Hill,39.0927,-77.0826
Minnetonka,44.9322,-93.4598
Wheaton,41.8561,-88.1085
West Sacramento,38.5557,-121.5505
Casa Grande,32.9069,-111.7624
Normal,40.5217,-88.9884
Kendale Lakes,25.7081,-80.4078
San Jacinto,33.797,-116.9916
Novato,38.092,-122.5575
Pinellas Park,27.8589,-82.7078
Galveston,29.2484,-94.8913
Edina,44.8914,-93.3602
Herriman,40.4899,-112.017
Elyria,41.376,-82.106
Grand Island,40.9218,-98.3586
Aloha,45.492,-122.8725
Lacey,47.0462,-122.7933
Bentonville,36.3547,-94.2305
Levittown,40.7241,-73.5125
Methuen Town,42.734,-71.1889
West New York,40.7857,-74.0094
Glendora,34.1449,-117.8467
Smyrna,35.9687,-86.5264
Florissant,38.7996,-90.3269
Delano,35.7662,-119.2635
Kannapolis,35.4764,-80.6408
Hoffman Estates,42.064,-88.1468
Beaumont,33.9076,-116.9766
Placentia,33.8807,-117.8553
Aliso Viejo,33.5792,-117.7289
Wheaton,39.0492,-77.0573
Cathedral City,33.8362,-116.4642
Rosemead,34.0689,-118.0823
Burien,47.4762,-122.3394
Bozeman,45.6833,-111.0558
Florin,38.4832,-121.4043
Twin Falls,42.5645,-114.4613
Enid,36.4063,-97.87
Country Club,25.9407,-80.3102
Dunwoody,33.9418,-84.3122
Levittown,40.1533,-74.8531
Palm Desert,33.7378,-116.3695
Covina,34.0903,-117.8818
Cuyahoga Falls,41.1641,-81.5207
Lakewood,41.4822,-81.8008
Marana,32.4355,-111.1558
Mishawaka,41.6742,-86.1666
Columbus,39.2093,-85.9183
Troy,42.7354,-73.6751
North Bethesda,39.0393,-77.1191
Milford city ,41.2255,-73.0625
Collierville,35.047,-89.6987
Grapevine,32.9343,-97.0742
Summerville,33.0016,-80.1799
Cypress,33.8171,-118.0386
Downers Grove,41.7949,-88.0172
Murray,40.6498,-111.8874
Catalina Foothills,32.3046,-110.8838
East Honolulu,21.2975,-157.7211
Draper,40.4957,-111.8605
Chesterfield,38.6589,-90.5803
Cerritos,33.8678,-118.0686
Bedford,32.8464,-97.135
St. Louis Park,44.9488,-93.3649
Azusa,34.1386,-117.9124
Euclid,41.5903,-81.5188
McLean,38.9436,-77.1943
Coral Gables,25.7037,-80.2715
Lincoln,38.8774,-121.2937
Jeffersonville,38.3376,-85.7026
Ceres,37.5952,-120.962
Biloxi,30.4426,-88.9514
Lawrence,39.8674,-85.9904
Poway,32.9871,-117.0201
Cedar Hill,32.581,-96.9591
Portage,42.2,-85.5906
Rowland Heights,33.9716,-117.8912
Niagara Falls,43.0921,-79.0147
Dublin,40.1112,-83.1454
El Dorado Hills,38.675,-121.049
Mooresville,35.5847,-80.8266
North Highlands,38.6713,-121.3721
Antelope,38.7153,-121.361
Spring Hill,35.7437,-86.9116
Everett,42.4064,-71.0545
University,28.0771,-82.4335
Roswell,33.373,-104.5294
Leesburg,39.1057,-77.5544
Rancho Santa Margarita,33.6318,-117.5988
Tuckahoe,37.5878,-77.5858
Titusville,28.5727,-80.8193
Glenview,42.0825,-87.8214
Wauwatosa,43.0616,-88.0347
Stillwater,36.1317,-97.0742
Minot,48.2375,-101.278
La Mirada,33.9025,-118.0093
Wilson,35.7311,-77.9284
Newark,37.5201,-122.0307
Roseville,42.5074,-82.9369
East Lansing,42.748,-84.4836
Mentor,41.6893,-81.3362
Bothell,47.7735,-122.2044
San Luis Obispo,35.2669,-120.669
Burleson,32.517,-97.3344
East Providence,41.8065,-71.3565
Middletown,41.5476,-72.6549
Brea,33.9254,-117.8655
Salina,38.8136,-97.6143
Potomac,39.0141,-77.1943
Farmington,36.7555,-108.1823
Sicklerville,39.7452,-74.9934
Ocoee,28.5796,-81.5332
Hilo,19.6883,-155.0863
Oro Valley,32.4208,-110.9767
Fort Pierce,27.4255,-80.3431
Wake Forest,35.9632,-78.514
Beavercreek,39.731,-84.0624
Strongsville,41.3128,-81.8313
Rockwall,32.9169,-96.4374
Attleboro,41.9311,-71.295
Winter Garden,28.5421,-81.5967
Pearl City,21.4031,-157.9566
Haltom City,32.8176,-97.2707
Altamonte Springs,28.6615,-81.3953
Hackensack,40.8891,-74.0462
Westfield,40.0341,-86.1529
Elmhurst,41.8973,-87.9432
Bountiful,40.8721,-111.8647
Littleton,39.5915,-105.0188
Huntsville,30.7009,-95.5567
Cleveland Heights,41.5113,-81.5636
Morgan Hill,37.1325,-121.6419
Keller,32.9335,-97.2256
Kyle,29.9932,-97.8852
Little Elm,33.1858,-96.9295
Whitney,36.1008,-115.0379
Prescott,34.5849,-112.4473
Sayreville,40.4656,-74.3237
Urbandale,41.639,-93.7812
Ashburn,39.0277,-77.4714
Sierra Vista,31.563,-110.3153
Cutler Bay,25.5765,-80.3356
Palm Springs,33.8017,-116.5382
Riverton,40.5176,-111.9636
Lake Ridge,38.6847,-77.3066
North Lauderdale,26.2113,-80.2209
Fairfield,39.3301,-84.5409
West Lafayette,40.4432,-86.9238
Goose Creek,32.9927,-80.0055
Salem,42.5129,-70.9021
Los Banos,37.063,-120.8406
Rohnert Park,38.3479,-122.6965
Fond du Lac,43.7718,-88.4397
Brentwood,35.9918,-86.7758
Freeport,40.6515,-73.585
Lombard,41.8741,-88.0157
Plainfield,41.6207,-88.2253
Lompoc,34.6618,-120.4714
Trujillo Alto,18.3599,-66.0096
Burke,38.7773,-77.2633
Moorhead,46.8673,-96.7461
Oakland Park,26.178,-80.1528
Wilkes-Barre,41.2469,-75.876
Campbell,37.2802,-121.9539
Mankato,44.1715,-93.9772
Pittsfield,42.4517,-73.2605
San Bruno,37.6256,-122.4313
Danville,37.8121,-121.9698
Concord,43.2305,-71.5595
The Colony,33.0925,-96.8976
Odenton,39.0661,-76.6938
Greenacres,26.627,-80.1371
West Babylon,40.7129,-73.3585
Shakopee,44.7745,-93.4772
Linden,40.6251,-74.2383
Altadena,34.1927,-118.1346
North Miami Beach,25.9302,-80.1659
Gallatin,36.3782,-86.4698
Wentzville,38.8153,-90.8669
Hicksville,40.7637,-73.5245
Jefferson City,38.5676,-92.1759
Buffalo Grove,42.1675,-87.9615
Woonsocket,42.001,-71.4993
Oakley,37.9929,-121.6952
Eagle Mountain,40.3137,-112.0114
Catonsville,39.2646,-76.7424
Woodbridge,38.6409,-77.258
Ormond Beach,29.2985,-81.1014
Moline,41.4821,-90.492
Huber Heights,39.8595,-84.113
Edmonds,47.8115,-122.3533
Manassas,38.7479,-77.4838
Danville,36.5831,-79.4088
Pahrump,36.2235,-115.9974
Belleville,38.5164,-89.99
Beverly,42.5681,-70.8627
Midland,43.6241,-84.2319
Coppell,32.9639,-96.9903
Channelview,29.7914,-95.1144
Puyallup,47.1793,-122.2902
Rancho Palos Verdes,33.7554,-118.3634
Coachella,33.6905,-116.143
Linton Hall,38.7551,-77.575
Peachtree Corners,33.967,-84.232
Woodlawn,39.3054,-76.7489
Pine Bluff,34.2116,-92.0173
Spanish Fork,40.1101,-111.6405
Annandale,38.8324,-77.196
Fitchburg,42.5912,-71.8156
Kearny,40.7528,-74.1202
Maplewood,44.9842,-93.0247
Mableton,33.8133,-84.5655
Schertz,29.565,-98.2535
Newnan,33.3767,-84.7761
Clermont,28.5325,-81.7208
North Fort Myers,26.7244,-81.8485
Marlborough,42.3494,-71.5468
Vineyard,38.474,-121.324
Coram,40.8812,-73.0059
Bartlett,41.9804,-88.2071
Hollister,36.8555,-121.3986
Bullhead City,35.1205,-114.5461
Lancaster,32.5922,-96.7739
Grove City,39.8654,-83.069
Marion,42.0451,-91.585
Brookfield,43.064,-88.1231
Delaware,40.2851,-83.0741
Hallandale Beach,25.9854,-80.1423
Woburn,42.4869,-71.1543
Columbia,35.6238,-87.0484
Germantown,35.0829,-89.7824
Shelton,41.306,-73.1383
Covington,39.0334,-84.5166
Westfield,42.1382,-72.7561
Friendswood,29.511,-95.1981
The Acreage,26.774,-80.2779
Essex,39.3021,-76.4449
Culver City,34.0058,-118.3968
Annapolis,38.9706,-76.5047
Duncanville,32.646,-96.9127
Cedar Falls,42.5195,-92.4536
Milton,34.1353,-84.3139
Weslaco,26.1599,-97.9877
Lake Oswego,45.4129,-122.7004
Lancaster,39.7248,-82.6049
Findlay,41.0469,-83.6379
Valley Stream,40.6647,-73.7043
New Berlin,42.9726,-88.1291
Hutchinson,38.0671,-97.9081
Holly Springs,35.6526,-78.8399
French Valley,33.5999,-117.1069
Security-Widefield,38.7489,-104.7142
Hurst,32.8353,-97.1809
Romeoville,41.6318,-88.0997
Crystal Lake,42.2333,-88.3351
Chelsea,42.3959,-71.0325
Waipahu,21.3859,-158.0101
Clinton,38.7499,-76.9063
Meadow Woods,28.3698,-81.3467
Carol Stream,41.9181,-88.1307
Brighton,39.9716,-104.7963
Bell Gardens,33.9663,-118.155
Waxahachie,32.4035,-96.8446
Reynoldsburg,39.9588,-82.7943
Lincoln Park,42.2432,-83.1811
Streamwood,42.0209,-88.1779
Aventura,25.9566,-80.1371
Fort Lee,40.8509,-73.9713
Quincy,39.9336,-91.3799
San Gabriel,34.0949,-118.099
Valrico,27.9193,-82.2293
Indian Trail,35.0699,-80.6452
Park Ridge,42.0125,-87.8436
Hobbs,32.7281,-103.16
Cape Girardeau,37.3109,-89.5597
Oviedo,28.658,-81.1872
Warren,41.239,-80.8174
Plant City,28.014,-82.1201
Urbana,40.1107,-88.1973
Olive Branch,34.961,-89.8469
Keizer,45.0028,-123.0243
Severna Park,39.087,-76.5687
Wheeling,42.1308,-87.924
Roy,41.1714,-112.0485
Issaquah,47.5439,-122.0471
Westerville,40.1241,-82.921
Grants Pass,42.4333,-123.3317
Lynnwood,47.8284,-122.3033
Calexico,32.6849,-115.4944
Mission Bend,29.6948,-95.6658
Royal Palm Beach,26.7038,-80.2241
Land O' Lakes,28.2075,-82.4476
Bettendorf,41.5657,-90.4765
Pacifica,37.6113,-122.4782
Cottage Grove,44.8161,-92.9274
Clovis,34.4376,-103.1923
Vestavia Hills,33.4518,-86.7437
La Presa,32.711,-117.0027
Holyoke,42.2125,-72.6411
Evans,33.5619,-82.1351
La Puente,34.0323,-117.9533
Apache Junction,33.3985,-111.535
Menomonee Falls,43.1487,-88.1227
Phenix City,32.4585,-85.0253
Stanton,33.8003,-117.9935
Post Falls,47.7213,-116.9384
La Vergne,36.02,-86.5586
Parkland,47.1417,-122.4376
East Meadow,40.7197,-73.5604
Mount Juliet,36.199,-86.5115
Hot Springs,34.4892,-93.0501
Winter Springs,28.6889,-81.2703
Monrovia,34.165,-117.9921
Prattville,32.4597,-86.4573
Carpentersville,42.1227,-88.2896
West Fargo,46.8573,-96.9057
Northglenn,39.9108,-104.9783
East Point,33.6696,-84.4701
Tupelo,34.2692,-88.7318
Rosenberg,29.5456,-95.8223
Montclair,34.0715,-117.6981
Peachtree City,33.3942,-84.571
La Quinta,33.6536,-116.2785
Mechanicsville,37.6263,-77.3561
Sun City,33.6165,-112.2819
Richmond West,25.6105,-80.4297
Greenfield,42.9619,-88.0052
Owasso,36.2878,-95.8311
Hanover Park,41.9818,-88.1446
Portage,41.5856,-87.1797
Rock Island,41.4699,-90.5827
Lebanon,36.204,-86.3481
Foothill Farms,38.6867,-121.3475
New Albany,38.309,-85.8234
Martinez,37.9985,-122.1161
Riviera Beach,26.7813,-80.0741
Adelanto,34.5814,-117.4397
Pleasant Grove,40.3716,-111.7412
Leavenworth,39.3239,-94.924
Muskogee,35.7432,-95.3567
Oregon City,45.3418,-122.5924
Bartlesville,36.7365,-95.9456
Saratoga Springs,40.345,-111.9154
Kendall West,25.7065,-80.4388
Richfield,44.8763,-93.2829
Kearns,40.6519,-112.0095
Tucker,33.8436,-84.2024
Elmont,40.7033,-73.7078
Franklin,42.8854,-88.0104
Oakton,38.8887,-77.3016
Lewiston,44.0915,-70.1681
South Valley,35.0093,-106.6819
Beloit,42.523,-89.0184
Upper Arlington,40.0272,-83.0704
DeLand,29.0225,-81.2875
Temple City,34.1022,-118.0579
Wildomar,33.6173,-117.2582
Chillum,38.9666,-76.9791
Princeton,25.5396,-80.3971
Claremont,34.1259,-117.7153
Winchester,36.1365,-115.137
Central Islip,40.7836,-73.1945
Georgetown,38.2247,-84.5487
Oak Creek,42.8803,-87.9009
Commack,40.8435,-73.2833
South Miami Heights,25.5886,-80.3862
Moorpark,34.2861,-118.8768
Merrillville,41.4728,-87.3196
Estero,26.4276,-81.7951
Egypt Lake-Leto,28.0177,-82.5062
Roseville,45.0155,-93.1545
Dunedin,28.0329,-82.7862
Farmers Branch,32.9272,-96.8804
Calumet City,41.6134,-87.5505
Marion,40.5973,-83.1227
Addison,41.9313,-88.0085
Buenaventura Lakes,28.3349,-81.3539
Westmont,33.9417,-118.3018
Lauderdale Lakes,26.1682,-80.2017
Richmond,39.8318,-84.8905
Carrollwood,28.0577,-82.5148
Olney,39.1465,-77.0715
Orangevale,38.6881,-121.2209
West Hollywood,34.0883,-118.3719
Randallstown,39.3723,-76.8024
Gahanna,40.0251,-82.8637
Meridian,32.3846,-88.6896
Norristown,40.1225,-75.3398
Manhattan Beach,33.8894,-118.3967
La Porte,29.6689,-95.0484
Inver Grove Heights,44.8247,-93.0596
Hilliard,40.0353,-83.1578
Sun Prairie,43.1825,-89.2362
Copperas Cove,31.1192,-97.914
Torrington,41.8349,-73.1282
El Mirage,33.5905,-112.3271
Wildwood,38.58,-90.6698
San Juan,26.1903,-98.152
Oakville,38.4479,-90.3199
San Juan Capistrano,33.5008,-117.6544
Midvale,40.6148,-111.8927
San Luis,32.4911,-114.7089
Brunswick,41.2465,-81.8198
Salisbury,35.6658,-80.4905
Tooele,40.5393,-112.3082
Watertown Town,42.37,-71.1774
Owings Mills,39.4115,-76.7913
Greer,34.933,-82.2313
Lake Stevens,48.0024,-122.0953
Northbrook,42.1292,-87.8352
College Park,38.996,-76.9337
University City,38.6657,-90.3315
North Ridgeville,41.3852,-82.0195
Del Rio,29.3708,-100.8801
Fair Lawn,40.9359,-74.1177
Long Beach,40.5887,-73.666
Goshen,41.5743,-85.8309
San Dimas,34.1082,-117.809
Springville,40.1638,-111.6205
Benton,34.5776,-92.5713
Hinesville,31.8248,-81.6137
Socorro,31.6383,-106.2601
Spanaway,47.0979,-122.4233
Richmond,37.7307,-84.2925
Pleasant Hill,37.9539,-122.0759
University Place,47.2147,-122.5461
Stow,41.1765,-81.4344
Kaneohe,21.4062,-157.7904
Montgomery Village,39.1788,-77.1954
Fruit Cove,30.0972,-81.6175
Monroe,35.0063,-80.5596
Fair Oaks,38.8653,-77.3586
Douglasville,33.7384,-84.7054
Fairborn,39.801,-84.0094
Butte,45.902,-112.6571
Dakota Ridge,39.6192,-105.1344
Oildale,35.4293,-119.0306
Mason,39.3571,-84.3023
Oswego,41.6834,-88.3372
Gadsden,34.0086,-86.0157
Plainfield,39.6954,-86.3716
Manitowoc,44.0991,-87.6812
Lufkin,31.3217,-94.7277
Cedar City,37.6834,-113.0956
Deer Park,29.6898,-95.1151
McMinnville,45.211,-123.1918
Woodridge,41.737,-88.0409
Eastpointe,42.4657,-82.9461
Prairieville,30.3151,-90.9571
New City,41.1542,-73.9912
Cookeville,36.1482,-85.5109
Huntington Station,40.8446,-73.405
Westlake,41.4524,-81.9294
Merritt Island,28.3139,-80.6708
Lewiston,46.3934,-116.9933
Golden Glades,25.9129,-80.2013
Bell,33.9801,-118.1798
Midlothian,32.4669,-96.989
Ken Caryl,39.577,-105.1144
Cooper City,26.0463,-80.2862
Woodstock,34.1026,-84.5091
Martinez,33.5209,-82.0985
South Riding,38.912,-77.5132
Valparaiso,41.4783,-87.0506
Parkland,26.3219,-80.2533
Walla Walla,46.0671,-118.3368
Leawood,38.9075,-94.6258
Graham,47.0322,-122.2827
Rexburg,43.8226,-111.7919
Menlo Park,37.4685,-122.1673
Cottonwood Heights,40.6137,-111.8144
Kearney,40.7011,-99.0833
Pikesville,39.3893,-76.702
Sahuarita,31.9323,-110.9654
Crown Point,41.4143,-87.3457
Foster City,37.5553,-122.2659
Timberwood Park,29.6995,-98.4838
Englewood,39.6468,-104.9942
Glendale Heights,41.9196,-88.0785
Bethel Park,40.3238,-80.0364
Baldwin,40.6511,-73.6075
Dana Point,33.4733,-117.6967
Los Gatos,37.2304,-121.9562
Brooklyn Center,45.0681,-93.3162
West Little River,25.8571,-80.2367
Petersburg,37.2043,-77.3913
Goldsboro,35.3778,-77.9717
Redmond,44.2612,-121.181
Fuquay-Varina,35.5953,-78.7778
Alabaster,33.2198,-86.8225
Gillette,44.2752,-105.4982
Kennesaw,34.026,-84.6177
Fallbrook,33.3693,-117.2259
Pueblo West,38.3465,-104.7246
Pullman,46.7336,-117.168
Spring Valley,41.1151,-74.0486
St. Charles,41.9193,-88.3109
Beverly Hills,34.0786,-118.4021
Spring Valley,32.7317,-116.9766
American Fork,40.3783,-111.7953
Chester,39.8456,-75.3718
Uniondale,40.7176,-73.5947
Elk Grove Village,42.0064,-87.9921
East Lake,28.1206,-82.6868
Redan,33.7394,-84.1644
Goleta,34.4361,-119.8594
Des Moines,47.3914,-122.3156
Sherwood,34.8507,-92.2029
Kiryas Joel,41.3411,-74.1667
Garfield,40.8791,-74.1085
Andover,45.2571,-93.3265
Kaysville,41.029,-111.9456
Statesboro,32.4375,-81.7751
Pekin,40.5678,-89.6251
Franklin Square,40.7002,-73.6775
North Olmsted,41.4149,-81.919
Nacogdoches,31.6134,-94.6528
Canton,34.2467,-84.4897
Wheat Ridge,39.7728,-105.1028
Harker Heights,31.0572,-97.6446
Rochester,43.299,-70.9787
Rome,43.226,-75.4909
Juneau,58.4546,-134.1739
Kingman,35.217,-114.0105
Massillon,40.7838,-81.5254
Savage,44.7545,-93.3632
Helena,46.5965,-112.0202
Lawndale,33.8884,-118.3531
Desert Hot Springs,33.955,-116.5429
Centereach,40.8681,-73.0821
San Pablo,37.9629,-122.3426
Windsor,40.469,-104.9198
O'Fallon,38.5974,-89.9148
Marrero,29.8871,-90.1126
West Odessa,31.8389,-102.5003
Bangor,44.8323,-68.7906
Ithaca,42.4442,-76.5032
Clearfield,41.103,-112.0238
Springfield,38.781,-77.1839
Fair Oaks,38.6504,-121.2496
Holladay,40.66,-111.8226
Long Branch,40.2965,-73.9915
Syracuse,41.0859,-112.0698
Dania Beach,26.0593,-80.1637
Florence,38.9899,-84.6471
Mundelein,42.2693,-88.0102
Naugatuck,41.489,-73.0518
Pasadena,39.1552,-76.5537
Los Altos,37.3684,-122.0965
Carlsbad,32.401,-104.2388
Aiken,33.5303,-81.7271
Duluth,34.0053,-84.1492
Laramie,41.3099,-105.6085
Cibolo,29.5634,-98.2115
Bay Shore,40.7288,-73.2495
La Verne,34.1207,-117.7703
Laguna Hills,33.5918,-117.6991
Atwater,37.3529,-120.5959
Newark,39.6776,-75.7576
Port Chester,41.0051,-73.668
Maryville,35.7468,-83.9789
Shawnee,35.3531,-96.9647
Lake Magdalene,28.0875,-82.4791
Sterling,39.0052,-77.405
Alamogordo,32.8837,-105.9625
Saratoga,37.2684,-122.0263
Oceanside,40.6328,-73.6364
North Royalton,41.3138,-81.745
Burlingame,37.5859,-122.3667
Lakeside,30.1356,-81.7674
Oak Ridge,35.9639,-84.2938
Nicholasville,37.8906,-84.5668
New Bern,35.0955,-77.0723
LaGrange,33.0274,-85.0384
West Falls Church,38.8648,-77.1878
Ballwin,38.595,-90.55
Cleburne,32.3568,-97.4151
Niles,42.0278,-87.8099
Bel Air North,39.5543,-76.3732
Westfield,40.6516,-74.3432
Orcutt,34.8691,-120.4222
Cornelius,35.4724,-80.8813
SeaTac,47.4444,-122.2986
Garner,35.6936,-78.6181
Gurnee,42.3708,-87.9392
Opelika,32.6612,-85.3769
Parkville,39.3832,-76.5519
Hopkinsville,36.8381,-87.4775
Southlake,32.9545,-97.1503
San Carlos,37.4982,-122.2677
Santa Paula,34.3545,-119.0656
Princeton,40.3562,-74.6693
Bowling Green,41.3776,-83.6495
Milford Mill,39.3444,-76.7668
Canyon Lake,29.8761,-98.2611
North Chicago,42.3172,-87.8595
Middle River,39.3436,-76.4253
Drexel Heights,32.1453,-111.048
North Tonawanda,43.0457,-78.8659
Miami Lakes,25.9125,-80.3214
Ferry Pass,30.5205,-87.1899
San Lorenzo,37.6733,-122.1332
Granger,41.7374,-86.1348
Morristown,36.2043,-83.3001
Weatherford,32.7536,-97.7723
Northport,33.2586,-87.5993
Lawrenceville,33.9523,-83.9932
Galesburg,40.9506,-90.3763
Zionsville,39.9897,-86.3182
Highland Park,42.1823,-87.8104
Austintown,41.0932,-80.7405
Greenville,33.385,-91.0514
Liberty,39.2394,-94.4191
Middletown,41.4459,-74.4236
Sanford,35.4875,-79.177
Monterey,36.5919,-121.8808
East Lake-Orient Park,27.997,-82.3653
Southgate,42.2047,-83.2057
Eastern Goleta Valley,34.4448,-119.7879
Chamblee,33.8842,-84.3007
Raytown,38.9944,-94.4641
East Palo Alto,37.4671,-122.1352
Carney,39.405,-76.5235
Algonquin,42.1629,-88.3159
Bella Vista,36.4667,-94.2707
Gloucester,42.626,-70.6897
Crofton,39.0144,-76.68
Atascadero,35.4827,-120.6858
Central,30.5593,-91.0369
Oak Park,42.4649,-83.1824
New Smyrna Beach,29.0249,-80.9652
Winter Park,28.5989,-81.3442
Eagle,43.7223,-116.3866
Banning,33.946,-116.8992
Garfield Heights,41.4199,-81.6038
Rahway,40.6077,-74.2807
Melrose,42.4556,-71.059
Danville,40.1426,-87.6111
Burton,42.9974,-83.6175
Hobart,41.514,-87.2729
Fleming Island,30.0988,-81.7124
Fountain,38.6886,-104.6829
Texarkana,33.436,-93.9959
Laurel,39.0949,-76.8622
Suisun City,38.2473,-122.0091
Fridley,45.0841,-93.2595
Matthews,35.1195,-80.7101
Lakewood Ranch,27.4185,-82.3948
Jacksonville,34.8807,-92.1304
Schererville,41.4861,-87.4442
Northampton,42.3266,-72.6745
Erie,40.0404,-105.0399
Fitchburg,42.9859,-89.4255
Hazleton,40.9505,-75.9725
Paragould,36.0555,-90.5149
Burbank,41.7444,-87.7686
Seguin,29.5891,-97.9676
Bethany,45.5614,-122.837
Golden Gate,26.1844,-81.7031
Kirkwood,38.5788,-90.4203
Shaker Heights,41.4744,-81.5496
Perry Hall,39.4068,-76.478
Englewood,40.8917,-73.9736
Laplace,30.0731,-90.4758
Magna,40.7634,-112.1599
East Niles,35.3683,-118.9225
Russellville,35.2762,-93.1383
Lake in the Hills,42.1913,-88.3477
Lansing,41.5648,-87.5462
Summerlin South,36.1242,-115.3324
New Iberia,30.0049,-91.8202
Prosper,33.2394,-96.8087
Morrisville,35.8368,-78.8348
Jamestown,42.0976,-79.2367
Oakleaf Plantation,30.1689,-81.8337
Jeffersontown,38.2049,-85.5701
Casselberry,28.6624,-81.3217
Madison Heights,42.5073,-83.1034
Mehlville,38.5018,-90.3149
Walnut,34.0334,-117.8593
Harrison,41.0236,-73.7193
Monroeville,40.4262,-79.7605
McDonough,33.4397,-84.1505
Stockbridge,33.5254,-84.2295
Drexel Hill,39.9495,-75.3038
Glen Ellyn,41.8666,-88.0629
Aberdeen,45.4649,-98.4686
Frankfort,38.1924,-84.8643
Allen Park,42.2595,-83.2107
Brownsburg,39.8337,-86.383
Orchards,45.689,-122.5306
Eagle Pass,28.7125,-100.484
Forest Hills,42.9577,-85.4895
Bergenfield,40.9236,-73.9982
Independence,38.951,-84.5492
Enterprise,31.3275,-85.8463
Henderson,37.8397,-87.5798
Glen Cove,40.8709,-73.6287
Maryland Heights,38.7189,-90.4749
Greenville,33.1116,-96.1099
Ewa Gentry,21.3344,-158.0262
Belmont,37.5154,-122.2953
Bixby,35.9454,-95.8776
Lathrop,37.809,-121.3131
Shirley,40.7936,-72.8748
Garden City,37.9753,-100.8527
Oakdale,44.9876,-92.9641
South Laurel,39.0603,-76.8456
Ridgecrest,35.6308,-117.6622
Mililani Town,21.4465,-158.0147
Millville,39.3903,-75.0561
Kahului,20.8715,-156.4603
Reisterstown,39.455,-76.814
Kent,41.149,-81.361
Williamsport,41.2399,-77.037
Dodge City,37.7611,-100.0182
Wilmette,42.0771,-87.7282
Easton,40.6858,-75.2209
Chicago Heights,41.51,-87.6345
Clinton,32.354,-90.3403
Tualatin,45.3772,-122.7748
Statesville,35.7842,-80.8713
Marion,40.5497,-85.6604
Washington,37.1303,-113.4878
Immokalee,26.4253,-81.4251
Maple Valley,47.3659,-122.0368
Bluffton,32.2135,-80.9316
New London,41.3502,-72.1022
Mount Pleasant,42.7129,-87.8876
Marshalltown,42.0343,-92.9068
West Islip,40.7041,-73.2954
Hamtramck,42.3954,-83.0559
Temescal Valley,33.7581,-117.4677
Lemon Grove,32.7331,-117.0344
Ilchester,39.2187,-76.7683
Wasco,35.5938,-119.3671
Rockledge,28.3203,-80.736
Chaska,44.8164,-93.6091
Madison,32.4738,-90.13
Oak Forest,41.6054,-87.7527
Citrus Park,28.073,-82.5628
Ramsey,45.2617,-93.4494
Mason City,43.1487,-93.1997
Balch Springs,32.7194,-96.6151
Williston,48.1814,-103.6364
Converse,29.5091,-98.3084
Monsey,41.1181,-74.0682
Clarksburg,39.2246,-77.2659
Granite City,38.7296,-90.1268
Short Pump,37.6549,-77.6201
Huntley,42.1599,-88.433
Garden City,42.3244,-83.3412
Green,40.9483,-81.4757
Fremont,41.4395,-96.4873
Prior Lake,44.7246,-93.4419
McHenry,42.3387,-88.2932
Neenah,44.1669,-88.4767
Benicia,38.0725,-122.1526
Twentynine Palms,34.1478,-116.0659
West Linn,45.367,-122.6399
Lindenhurst,40.6858,-73.371
Plum,40.5024,-79.7495
Daphne,30.6263,-87.8816
Pearl,32.273,-90.0918
Lochearn,39.3461,-76.7307
Alvin,29.3872,-95.2938
Hutto,30.5396,-97.544
Holbrook,40.7944,-73.07
New Lenox,41.5095,-87.9703
Thomasville,35.8813,-80.0807
Crestview,30.7477,-86.5785
Sun City Center,27.715,-82.3569
Auburn,42.9338,-76.5685
Shoreview,45.0842,-93.1358
South Pasadena,34.1103,-118.1573
Gladstone,39.2134,-94.5592
Deer Park,40.7623,-73.3218
Sachse,32.9726,-96.5793
Key West,24.5642,-81.7775
Carrollton,33.5818,-85.0838
Eureka,40.7943,-124.1564
Wooster,40.8172,-81.9336
Asheboro,35.7158,-79.8127
Fortuna Foothills,32.6616,-114.3974
Vernon Hills,42.234,-87.9608
Leisure City,25.4935,-80.4363
Plainview,40.7832,-73.4732
Paramus,40.9455,-74.0712
Lemoore,36.2949,-119.7983
Horn Lake,34.9512,-90.0501
Palm Springs,26.6348,-80.0969
Superior,46.6941,-92.0823
Temple Terrace,28.0436,-82.3773
Windsor,38.5422,-122.8089
Ruskin,27.7065,-82.4209
Haines City,28.1102,-81.6157
East Chicago,41.6469,-87.4545
Brawley,32.9783,-115.5287
South Portland,43.631,-70.2895
Sanger,36.699,-119.5575
Cabot,34.9766,-92.0274
Kernersville,36.1065,-80.0842
Suitland,38.8492,-76.9225
Imperial Beach,32.5693,-117.118
Owatonna,44.0912,-93.2312
Sun City West,33.6695,-112.3573
West Whittier-Los Nietos,33.9759,-118.0689
Union City,33.5942,-84.5629
Batavia,41.8479,-88.3109
Paducah,37.0711,-88.644
Mint Hill,35.1783,-80.6528
Homewood,33.4619,-86.809
Big Spring,32.2389,-101.4799
Winona,44.0505,-91.6684
Norco,33.9252,-117.5498
Bessemer,33.3712,-86.9728
Tysons,38.9215,-77.2273
Troy,40.0437,-84.2186
South Salt Lake,40.7057,-111.8986
Lockport,41.5906,-88.0293
Hercules,38.0064,-122.2564
Austin,43.6721,-92.9784
Medina,41.1358,-81.8695
Ridgewood,40.9821,-74.1127
Lodi,40.8784,-74.0814
Oak Ridge,28.4727,-81.4169
Grandview,38.8802,-94.5227
Columbine,39.5879,-105.0694
El Cerrito,37.9196,-122.3025
Wilsonville,45.3109,-122.7702
West Chicago,41.896,-88.2253
Woodburn,45.1472,-122.8603
Coral Terrace,25.7464,-80.3049
Oxford,34.3627,-89.5336
Inkster,42.2935,-83.3148
Fort Washington,38.7339,-77.0069
Woodstock,42.3096,-88.4353
Colleyville,32.8913,-97.1486
Camas,45.6005,-122.4304
Rockville Centre,40.6643,-73.6383
West Melbourne,28.0694,-80.6736
Forest Grove,45.5243,-123.1097
Holt,42.6416,-84.5308
Stevens Point,44.5241,-89.5507
North Tustin,33.7636,-117.7947
Ives Estates,25.9632,-80.183
Chanhassen,44.8546,-93.5621
Cloverleaf,29.7882,-95.1724
Mill Creek East,47.8361,-122.1877
Ladera Ranch,33.5492,-117.6417
Cliffside Park,40.8222,-73.9879
Rosemount,44.7466,-93.0661
Mercer Island,47.5661,-122.232
Palm River-Clair Mel,27.9239,-82.3791
Clayton,35.659,-78.4498
Palm City,27.1735,-80.2862
Maywood,33.9886,-118.1877
Elk River,45.3314,-93.567
Hazelwood,38.7931,-90.3899
Melrose Park,41.903,-87.8636
Kingsville,27.5094,-97.861
Xenia,39.6829,-83.9413
Keystone,28.1312,-82.5999
Terrytown,29.9014,-90.0279
Galt,38.2698,-121.3004
Lafayette,37.8919,-122.1189
Ottumwa,41.0195,-92.4186
Derby,37.5571,-97.2551
Silver Springs Shores,29.1126,-82.0149
Staunton,38.1593,-79.0611
Florence,33.059,-111.4209
Moscow,46.7308,-116.9986
Salem,37.2864,-80.0555
Fairland,39.0803,-76.9527
Newport,41.4801,-71.3203
Barberton,41.0095,-81.6037
Peekskill,41.2884,-73.9227
Caledonia,42.7986,-87.8762
Pooler,32.1043,-81.2569
Cave Spring,37.2254,-80.0072
Hastings,40.5961,-98.39
Edwardsville,38.7922,-89.9874
De Pere,44.4308,-88.0785
Seal Beach,33.7542,-118.0714
Athens,34.7843,-86.9503
Jenks,35.9981,-95.9736
Bayonet Point,28.3254,-82.6834
Belvidere,42.2543,-88.8649
Okemos,42.7057,-84.4135
Watertown,43.9734,-75.9094
Reedley,36.5988,-119.4471
Walker,42.9853,-85.7446
Tarpon Springs,28.1493,-82.7623
Barstow,34.8661,-117.0471
Franklin,39.4948,-86.0544
Newberg,45.3075,-122.9601
Soledad,36.4432,-121.3426
Carteret,40.5849,-74.2284
Sandusky,41.4468,-82.7024
Arnold,39.0437,-76.4974
Bloomingdale,27.8784,-82.2624
Norton Shores,43.1621,-86.2519
University Park,32.8506,-96.7937
Trussville,33.6405,-86.5815
Avon Lake,41.4944,-82.0159
Edgewood,39.419,-76.2964
Morton Grove,42.0423,-87.789
Bay Point,38.0329,-121.9615
Wyandotte,42.2113,-83.1558
Muskego,42.886,-88.1291
Romulus,42.2237,-83.366
South Bradenton,27.4612,-82.5822
Norfolk,42.0324,-97.4217
Northdale,28.1058,-82.5263
Marysville,40.2279,-83.3595
Brandon,32.2778,-89.9896
Venice,27.1184,-82.4137
Tumwater,46.9891,-122.9175
Dickinson,46.8918,-102.7925
Sebastian,27.7822,-80.4819
Ardmore,34.1949,-97.1256
Somerset,40.5083,-74.501
Fort Dodge,42.5098,-94.1751
Mequon,43.2352,-87.9839
Wright,30.4445,-86.6419
San Benito,26.1298,-97.644
Zanesville,39.9565,-82.0132
Apollo Beach,27.7618,-82.4003
Fort Hood,31.1357,-97.7834
Moses Lake,47.1279,-119.2759
Dix Hills,40.8033,-73.3375
Riverbank,37.726,-120.9433
Loma Linda,34.045,-117.2498
Medford,40.822,-72.9859
Port St. John,28.4757,-80.8104
West Memphis,35.153,-90.1996
Homer Glen,41.6043,-87.9497
Zion,42.4603,-87.8511
Socastee,33.6871,-79.0086
Clinton,41.8435,-90.2412
Carolina Forest,33.7651,-78.913
Perrysburg,41.5377,-83.6413
Westmont,41.7948,-87.9742
Collinsville,38.677,-90.0063
Greenbelt,38.9953,-76.8885
Sugar Hill,34.108,-84.0558
Corsicana,32.0824,-96.4665
Starkville,33.4608,-88.8297
Herndon,38.9699,-77.3867
North Lynnwood,47.8533,-122.2762
Bainbridge Island,47.6439,-122.5434
Selma,36.5715,-119.6143
Avon,41.4485,-82.0187
White Bear Lake,45.0656,-93.015
Elmwood Park,41.9225,-87.8163
Landover,38.9241,-76.8875
Athens,39.327,-82.0987
Bailey's Crossroads,38.8477,-77.1305
Ponca City,36.7235,-97.0677
Riverside,39.7835,-84.1219
Fish Hawk,27.8511,-82.2164
North Potomac,39.0955,-77.2373
Paris,33.6688,-95.546
Dinuba,36.5453,-119.3987
Rosemont,38.5478,-121.3553
Decatur,33.7711,-84.2963
Ridgeland,32.4236,-90.1481
Palmetto Bay,25.6219,-80.3221
Denison,33.7672,-96.5808
Faribault,44.2996,-93.2789
Rolling Meadows,42.0747,-88.0252
Centerville,39.6339,-84.1449
Oak Harbor,48.2964,-122.6333
Kalispell,48.2153,-114.3274
South Plainfield,40.5748,-74.4152
Benbrook,32.6788,-97.4637
North Laurel,39.1285,-76.8476
Emporia,38.4028,-96.1932
Auburn Hills,42.6735,-83.2448
Westchase,28.0597,-82.611
Burlington,40.8071,-91.1247
Pelham,33.3114,-86.7573
Elkridge,39.1941,-76.7428
Freeport,42.2891,-89.6346
San Fernando,34.2886,-118.4362
Kerrville,30.0398,-99.132
Solon,41.3865,-81.44
Fort Mill,35.0061,-80.9389
Wekiwa Springs,28.6984,-81.4251
North Augusta,33.5214,-81.9547
Willowbrook,33.9209,-118.2356
Allendale,42.9845,-85.9499
Farmington,40.9845,-111.9065
Lisle,41.7918,-88.0888
Fairfax,38.8531,-77.2997
Kingston,41.9295,-73.9968
Columbus,41.4366,-97.3565
Fresno,29.5357,-95.4696
Champlin,45.1702,-93.3903
Papillion,41.1511,-96.0665
Columbus,33.5088,-88.4096
King of Prussia,40.0963,-75.3821
Belton,38.8192,-94.5335
Lutz,28.1396,-82.4467
Webster Groves,38.5866,-90.3544
Cockeysville,39.4804,-76.6294
Auburn,44.0851,-70.2492
Wadsworth,41.0279,-81.7323
Mandan,46.829,-100.887
Kuna,43.488,-116.3933
Muscatine,41.4195,-91.068
Willoughby,41.6459,-81.4084
South Elgin,41.9906,-88.3135
Munster,41.5468,-87.504
Yukon,35.5201,-97.7639
Highland,41.5483,-87.4588
Saginaw,32.8657,-97.3654
Watauga,32.8719,-97.2515
Ashland,37.6942,-122.1159
Fountain Hills,33.6073,-111.7398
Chantilly,38.8868,-77.4453
West Springfield,38.7771,-77.2268
Kenmore,47.7516,-122.2489
Copiague,40.6707,-73.3922
Roseburg,43.2231,-123.352
Maywood,41.8798,-87.8442
North Platte,41.1263,-100.7641
Catano,18.4375,-66.144
Pace,30.6188,-87.1667
Vega Baja,18.4406,-66.3997
Patterson,37.4758,-121.1536
Maple Heights,41.4094,-81.5625
Rock Springs,41.5947,-109.2209
Jacksonville Beach,30.2782,-81.4045
Happy Valley,45.4358,-122.5081
Waukee,41.5985,-93.8869
Brookings,44.3022,-96.7859
Johnston,41.691,-93.7234
Calabasas,34.1375,-118.6689
Farragut,35.8731,-84.1821
Taylors,34.9157,-82.3124
Jasmine Estates,28.293,-82.6907
Waverly,42.7401,-84.6354
Linda,39.1241,-121.5421
Griffin,33.2418,-84.2748
New Brighton,45.0658,-93.206
Farmington,44.6572,-93.1687
Kapolei,21.3399,-158.0677
Loves Park,42.3364,-88.9975
Van Buren,35.4483,-94.3528
Clinton,41.1395,-112.0656
Simpsonville,34.7287,-82.2569
Christiansburg,37.1406,-80.4036
Allison Park,40.573,-79.9603
Trotwood,39.7926,-84.3165
Crystal,45.0377,-93.3599
Mountain House,37.7673,-121.5449
Laguna Beach,33.5455,-117.7613
Ballenger Creek,39.3807,-77.4206
Eastmont,47.8968,-122.1818
Garden City,40.7266,-73.6447
Millbrae,37.5994,-122.4023
Searcy,35.2418,-91.7351
Lexington,33.989,-81.2202
Gardner,38.8122,-94.9275
Union Hill-Novelty Hill,47.6788,-122.0284
Junction City,39.0277,-96.8508
Watertown,43.1893,-88.7285
Greenfield,39.7937,-85.7738
Hopewell,37.2915,-77.2985
Oakdale,37.7618,-120.8468
Shelbyville,35.4987,-86.4517
Cudahy,33.9631,-118.183
West Puente Valley,34.0513,-117.9681
Hudson,41.2399,-81.4408
Middletown,39.445,-75.7183
Roselle,41.9809,-88.0861
Brushy Creek,30.5128,-97.7386
Keene,42.9494,-72.2998
Edgewater,28.9594,-80.9406
East San Gabriel,34.1157,-118.0791
Blue Island,41.6578,-87.6811
Nixa,37.0453,-93.2959
Hialeah Gardens,25.8878,-80.3569
Camp Springs,38.8052,-76.9199
Candler-McAfee,33.7267,-84.2723
Machesney Park,42.3666,-89.0266
Belton,31.0525,-97.479
Marshall,32.537,-94.3515
Kihei,20.7653,-156.4454
Radcliff,37.8204,-85.9365
Prairie Village,38.9874,-94.6362
Leland,34.2042,-78.0279
Oxford,39.5061,-84.7446
Cottage Lake,47.7466,-122.0755
Forney,32.744,-96.4529
Villa Park,41.8865,-87.9779
Anthem,33.856,-112.1168
Raymore,38.8029,-94.4583
East Peoria,40.6736,-89.5419
Pickerington,39.889,-82.7678
Duncan,34.5408,-97.9215
Easley,34.8188,-82.5827
North Plainfield,40.6209,-74.4386
Cartersville,34.1644,-84.8009
Sun Valley,39.6104,-119.777
Corcoran,36.0841,-119.5613
Bellview,30.462,-87.312
Summit,40.7154,-74.3647
Woodlawn,38.7332,-77.1149
Watertown,44.9094,-97.1532
Eustis,28.8563,-81.6771
Chester,37.3531,-77.4342
Roselle,40.6527,-74.2599
Bloomingdale,41.9497,-88.0895
The Crossings,25.6708,-80.4018
Greenwood,34.1947,-82.1542
Fernley,39.5627,-119.1906
Biddeford,43.4673,-70.4511
Acworth,34.0566,-84.6716
Ruston,32.5328,-92.6363
Hillsborough,40.5069,-74.6523
Albertville,34.2633,-86.2108
Martha Lake,47.8479,-122.2327
Massapequa,40.6676,-73.4706
Golden Valley,44.9901,-93.3591
Marina,36.681,-121.7892
Sunny Isles Beach,25.9385,-80.1246
Bonney Lake,47.1791,-122.17
Coralville,41.699,-91.5967
Corinth,33.1434,-97.0682
Oxford,33.5967,-85.8687
Central Falls,41.8901,-71.3934
Mountain Brook,33.4871,-86.74
Clarksville,38.322,-85.7673
Florida Ridge,27.5805,-80.3848
Waynesboro,38.0674,-78.9014
Chambersburg,39.9315,-77.6556
Silver Firs,47.8635,-122.1497
Cherry Hill,38.5696,-77.2895
Bloomington,34.0601,-117.4013
Darien,41.7448,-87.9822
Horizon City,31.6799,-106.1903
Hastings,44.7318,-92.8538
Chillicothe,39.3393,-82.9939
West Carson,33.8229,-118.2931
Rancho San Diego,32.7624,-116.9197
DeBary,28.8815,-81.324
Ensley,30.5259,-87.2733
West Rancho Dominguez,33.9057,-118.2683
Conway,33.8401,-79.0431
Pascagoula,30.3666,-88.5506
La Porte,41.6069,-86.7142
New Castle,40.9956,-80.3458
Brambleton,38.9803,-77.5323
Chalmette,29.9438,-89.966
Winter Gardens,32.8376,-116.9268
East Ridge,34.9973,-85.2285
Montclair,38.6111,-77.34
West Pensacola,30.4263,-87.2679
Port Hueneme,34.1618,-119.2036
Parsippany,40.8645,-74.4135
Katy,29.7905,-95.8353
Gallup,35.5182,-108.7431
Hayesville,44.9793,-122.9738
South Euclid,41.524,-81.5245
Mount Pleasant,43.5966,-84.7759
Alliance,40.9107,-81.1189
Ramona,33.0474,-116.8766
Sapulpa,36.0091,-96.1003
East Patchogue,40.7704,-72.9817
Fairhope,30.5209,-87.8813
Sanford,43.4244,-70.7573
Valinda,34.04,-117.93
Del City,35.4483,-97.4408
Vicksburg,32.3173,-90.8868
American Canyon,38.1796,-122.2583
Birmingham,42.5446,-83.2166
Evans,40.366,-104.739
Duarte,34.161,-117.9504
Four Square Mile,39.6808,-104.888
Brent,30.4727,-87.2495
Klamath Falls,42.2195,-121.7754
Bayou Cane,29.6243,-90.751
Sedalia,38.7059,-93.234
Ashland,38.4592,-82.6448
New Hope,45.0375,-93.3869
Granite Bay,38.7601,-121.1714
Yucca Valley,34.1234,-116.4216
Mililani Mauka,21.4756,-157.9948
Frederickson,47.0916,-122.3603
Hazel Dell,45.6797,-122.6553
Middleton,43.1064,-89.5059
Bear,39.6189,-75.6808
Columbia Heights,45.0484,-93.2472
Dolton,41.6284,-87.5979
Shelby,35.2904,-81.5451
Tukwila,47.475,-122.2728
North Bellmore,40.6904,-73.539
South Holland,41.5977,-87.6022
Rocky River,41.4702,-81.8525
Lennox,33.938,-118.3586
Sulphur,30.2286,-93.3566
Geneva,41.8833,-88.3242
Rose Hill,38.7872,-77.1085
Secaucus,40.781,-74.0659
Holiday,28.1864,-82.7429
North Salt Lake,40.8439,-111.9187
Mukilteo,47.9096,-122.3035
Liberty Triangle,29.076,-82.2191
Lorton,38.6983,-77.2164
Lakeside,32.856,-116.904
St. Andrews,34.051,-81.1057
Park Forest,41.4817,-87.6867
South Lake Tahoe,38.9393,-119.9828
Ashland,42.1905,-122.6992
Dickinson,29.4548,-95.0589
Silverdale,47.6663,-122.6828
Baldwin,40.369,-79.9669
Selden,40.8714,-73.0466
Elmwood Park,40.9049,-74.1201
Carrboro,35.9259,-79.0878
Lealman,27.8197,-82.6847
Mountlake Terrace,47.7921,-122.3077
Pleasant Prairie,42.5266,-87.8895
Seymour,38.9476,-85.8911
Gardner,42.5845,-71.9868
East Moline,41.5199,-90.3879
Lino Lakes,45.1679,-93.083
Milwaukie,45.4445,-122.6219
Payson,40.0355,-111.739
Louisville,39.971,-105.1441
Lindenwold,39.8173,-74.9898
Clemmons,36.0319,-80.3861
Merrick,40.6515,-73.5535
McNair,38.9513,-77.4115
Harvey,29.8876,-90.0666
Rio Rico,31.4957,-110.9885
Lomita,33.7933,-118.3175
Wade Hampton,34.8821,-82.3336
Lockport,43.1698,-78.6956
Ozark,37.0365,-93.2158
Hays,38.8821,-99.3221
Makakilo,21.3591,-158.0813
Avon,39.7601,-86.3916
Mineola,40.747,-73.6394
Grayslake,42.3405,-88.0338
Willmar,45.1216,-95.0569
Murrysville,40.4456,-79.6554
Arnold,38.4297,-90.3733
Fort Walton Beach,30.4255,-86.6222
Hyattsville,38.9613,-76.9548
South Milwaukee,42.912,-87.8627
Germantown,43.2343,-88.1217
Lebanon,39.4254,-84.2133
Langley Park,38.9897,-76.9808
Parma Heights,41.3865,-81.7637
Harvey,41.6076,-87.652
West Hempstead,40.6959,-73.6507
Green Valley,31.8393,-111.0009
Lincolnia,38.8158,-77.1543
North Ogden,41.3123,-111.9584
Mead Valley,33.8333,-117.2852
Helena,33.2837,-86.8791
Adrian,41.8994,-84.0447
Pittsburg,37.4129,-94.6985
Mill Creek,47.8631,-122.2037
Murphy,33.0186,-96.6105
South St. Paul,44.8877,-93.0411
Suwanee,34.0508,-84.0686
Coronado,32.6649,-117.1604
Libertyville,42.287,-87.967
La Canada Flintridge,34.2097,-118.2002
Covington,47.3667,-122.1045
Tullahoma,35.3721,-86.2172
Rosamond,34.8658,-118.2155
Marquette,46.544,-87.4082
Sidney,40.2891,-84.1667
Bethany,35.5071,-97.6418
Battle Ground,45.7766,-122.5413
Pleasantville,39.39,-74.5169
Stephenville,32.2147,-98.2205
Yorkville,41.6563,-88.4507
West St. Paul,44.9018,-93.0858
Snellville,33.8562,-84.0038
Ypsilanti,42.244,-83.6208
Five Corners,45.6883,-122.5738
Oroville,39.4999,-121.5634
Bryant,34.6152,-92.4914
Elko,40.8381,-115.7678
Old Jamestown,38.8394,-90.2847
Hanahan,32.9302,-80.0027
Northfield,44.455,-93.1698
Forest Lake,45.2536,-92.9582
Agoura Hills,34.151,-118.7609
Piqua,40.1506,-84.2441
Monroe,41.9155,-83.3849
Lynbrook,40.6579,-73.6742
Painesville,41.724,-81.2536
Crest Hill,41.5723,-88.1124
Rosedale,39.3266,-76.5084
Palisades Park,40.8472,-73.9966
Glassboro,39.7014,-75.1113
Sherwood,45.3594,-122.8427
East Northport,40.8791,-73.3233
Perry,32.472,-83.7283
Saco,43.539,-70.4624
Marion Oaks,29.0011,-82.1953
Bothell West,47.8056,-122.2401
Plainview,34.1911,-101.7235
Foley,30.3983,-87.665
La Crescenta-Montrose,34.2322,-118.2353
Clifton,39.0764,-108.4605
Palm Valley,30.2011,-81.3948
Mayfield Heights,41.5174,-81.4534
Montrose,38.4689,-107.859
Montgomery,41.7237,-88.3633
Westbrook,43.6954,-70.3539
Sherrelwood,39.839,-105.0014
Shenandoah,30.4019,-91.002
South Burlington,44.4622,-73.2202
Golden,39.7406,-105.2118
Frankfort,41.4892,-87.8363
Mesquite,36.8032,-114.133
Whitehall,39.9682,-82.8833
Morristown,40.7967,-74.4772
East Hemet,33.7301,-116.941
Imperial,32.839,-115.572
North Liberty,41.7438,-91.6112
World Golf Village,29.9654,-81.4896
Plattsburgh,44.6951,-73.4563
Hauppauge,40.8211,-73.2109
Albany,37.8897,-122.3018
Rolla,37.9459,-91.7607
Pecan Grove,29.6235,-95.733
Ennis,32.3254,-96.6347
Forest Park,39.2861,-84.5258
Oregon,41.6524,-83.4321
Sand Springs,36.1353,-96.1283
Portland,27.8942,-97.3278
Mokena,41.5327,-87.8781
Shafter,35.4794,-119.2013
Prunedale,36.8064,-121.6555
Port Angeles,48.1141,-123.4565
Kinston,35.2747,-77.5939
Evergreen Park,41.7213,-87.7013
Monroe,47.8595,-121.9851
Miamisburg,39.6322,-84.2724
Carlisle,40.2,-77.2034
South El Monte,34.0493,-118.0484
Forest Park,33.6209,-84.359
Mustang,35.3917,-97.7246
Arlington,48.1701,-122.1442
Nogales,31.3624,-110.9336
Howard,44.5703,-88.0928
Broadview Heights,41.3196,-81.6779
North Amityville,40.7005,-73.4119
Salmon Creek,45.7099,-122.6632
Lake Zurich,42.1956,-88.087
St. John,41.4429,-87.4697
Casa de Oro-Mount Helix,32.764,-116.9688
Hermosa Beach,33.8653,-118.3962
Westminster,39.5796,-77.0067
South San Jose Hills,34.0123,-117.9043
Culpeper,38.4704,-78.0001
Bayshore Gardens,27.4345,-82.5793
Homewood,41.5591,-87.661
Shelbyville,39.5352,-85.7793
Lackawanna,42.8182,-78.8325
Englewood,26.9717,-82.3524
Universal City,29.5521,-98.3074
Arbutus,39.2428,-76.6922
Waxhaw,34.9363,-80.7439
Prichard,30.7735,-88.1301
Alamo,26.181,-98.1177
West Mifflin,40.3581,-79.9073
Nanuet,41.0957,-74.0155
Midway,30.4169,-87.0229
Nocatee,30.0927,-81.4095
Meadowbrook,37.4301,-77.474
Altamont,42.198,-121.7248
Arvin,35.1944,-118.8306
Otsego,45.266,-93.6201
Seabrook,38.9802,-76.8502
Hunters Creek,28.361,-81.4358
Valle Vista,33.7436,-116.8871
Ashland,40.8668,-82.3156
Madisonville,37.3409,-87.5034
Stevenson Ranch,34.3894,-118.5883
Brookfield,41.8245,-87.847
Warrensburg,38.7627,-93.726
Hawthorne,40.9579,-74.1582
Erlanger,39.0109,-84.5864
Hurricane,37.1487,-113.3517
Orinda,37.8808,-122.179
Holtsville,40.8124,-73.0447
Lake Forest,42.238,-87.8596
East St. Louis,38.6155,-90.1304
Sweetwater,25.7785,-80.376
Lynn Haven,30.2337,-85.637
Ferndale,42.4592,-83.1313
Angleton,29.1721,-95.4293
Lake Shore,39.103,-76.4876
Brigham City,41.5035,-112.0453
Lexington,35.8018,-80.2682
Syosset,40.8157,-73.502
Altoona,41.6483,-93.4783
Liberal,37.0466,-100.9295
Haslett,42.7525,-84.402
Orange,30.1226,-93.7607
Cutlerville,42.8403,-85.6734
Zachary,30.6643,-91.1634
Stillwater,45.0573,-92.8313
Punta Gorda,26.8941,-82.0513
Deerfield,42.1654,-87.8516
Badger,64.8006,-147.3877
Seminole,27.8435,-82.784
Twinsburg,41.322,-81.4451
Ellensburg,46.9999,-120.5475
Wallingford Center,41.4499,-72.8189
Naples,26.1504,-81.7936
Lumberton,34.6312,-79.0186
Claremore,36.3146,-95.6095
Five Forks,34.8069,-82.2271
Maitland,28.6295,-81.3718
Hermiston,45.8326,-119.2854
White Oak,39.2106,-84.606
Sartell,45.6188,-94.2206
Preakness,40.9382,-74.2242
Merrifield,38.8731,-77.2426
Maumelle,34.8522,-92.4
Pinole,37.9931,-122.2833
Tinton Falls,40.2708,-74.0949
Matteson,41.5095,-87.7468
Dixon,38.4469,-121.825
Arcata,40.8615,-124.0758
Alsip,41.6701,-87.7368
Cumberland,39.6515,-78.7584
Midlothian,37.4856,-77.6522
East Massapequa,40.6742,-73.4359
Winchester,38.0018,-84.1908
Sylvania,41.71,-83.7092
Cedar Mill,45.5355,-122.8006
Norwood,39.1605,-84.4535
Bourbonnais,41.183,-87.8784
Durango,37.2659,-107.8781
Central Point,42.3764,-122.9111
Ansonia,41.3443,-73.0689
Gautier,30.4106,-88.6568
Affton,38.5499,-90.3264
Highland,40.4276,-111.7957
Fox Crossing,44.2228,-88.4763
Franklin Farm,38.9133,-77.3969
Augusta,44.3341,-69.7319
Cocoa,28.382,-80.7675
Bartow,27.8868,-81.8214
Rosedale,35.3886,-119.2058
Brownwood,31.7127,-98.9767
Hopkins,44.9259,-93.4056
Bradfordville,30.5735,-84.2055
Thomasville,30.8394,-83.9782
Point Pleasant,40.0772,-74.0702
Greenfield,36.3242,-121.2428
Springboro,39.5615,-84.2348
Chowchilla,37.1095,-120.2349
Ferguson,38.749,-90.295
Altus,34.6565,-99.3061
Harrison,40.7431,-74.1531
Santa Fe Springs,33.9329,-118.0625
Bensenville,41.9579,-87.9442
Rutherford,40.8203,-74.1057
Bellwood,41.8829,-87.8762
Colonia,40.5926,-74.3148
North Babylon,40.7314,-73.3248
Ronkonkoma,40.8037,-73.1246
Beltsville,39.0394,-76.9211
Oxon Hill,38.7884,-76.9727
Concord,38.5117,-90.3574
Onalaska,43.8883,-91.2075
Buckhall,38.7239,-77.4476
Berea,41.3696,-81.8641
Round Lake,42.3435,-88.1059
Ottawa,41.3555,-88.8261
Wisconsin Rapids,44.3927,-89.8265
Marshfield,44.6627,-90.1728
Sheridan,44.7961,-106.9642
Creve Coeur,38.662,-90.443
Johnstown,40.326,-78.9194
Fayetteville,33.4501,-84.471
Country Walk,25.633,-80.4353
Cimarron Hills,38.8597,-104.6995
Knightdale,35.7911,-78.4966
Sudley,38.7878,-77.4961
Phelan,34.4398,-117.5248
Brook Park,41.4036,-81.8219
West Chester,39.9601,-75.6058
San Carlos Park,26.4765,-81.8193
North Massapequa,40.7031,-73.4678
Newton,38.0368,-97.3449
Melville,40.7824,-73.4088
Springfield,36.4949,-86.8711
Palestine,31.7544,-95.6471
North Bay Shore,40.7602,-73.2617
Lansdale,40.2417,-75.2812
North Myrtle Beach,33.8232,-78.7082
Nederland,29.9707,-94.0015
Martinsburg,39.4582,-77.9776
Trenton,42.1394,-83.1929
Parole,38.9863,-76.5518
Fairwood,47.4467,-122.143
Lakeway,30.3544,-97.9864
Logansport,40.7472,-86.352
Elizabeth City,36.2942,-76.236
Nipomo,35.0319,-120.4985
Phoenixville,40.1359,-75.5201
Franklin Park,41.9361,-87.8794
Albert Lea,43.6548,-93.3643
Selma,32.4166,-87.0336
Arroyo Grande,35.1241,-120.5845
Dover,40.8859,-74.5597
Harrisburg,35.3125,-80.6485
Hybla Valley,38.7484,-77.0821
Tallmadge,41.1023,-81.4216
Pinecrest,25.665,-80.3042
Cinco Ranch,29.7395,-95.7607
Burlington,39.0223,-84.7217
Palos Hills,41.6986,-87.8266
Kingstowne,38.7625,-77.1444
Portsmouth,38.7538,-82.9445
Fairmont,39.4768,-80.1491
Durant,33.9949,-96.3923
North Valley Stream,40.684,-73.7077
Wantagh,40.6686,-73.5104
Clive,41.6147,-93.798
Niles,41.1879,-80.7531
Tillmans Corner,30.5819,-88.2128
Republic,37.1452,-93.4446
Franconia,38.7682,-77.1587
Manchester,38.583,-90.5064
Tavares,28.792,-81.7352
Newburyport,42.8124,-70.8878
Knik-Fairview,61.5082,-149.6252
Ocean Springs,30.4082,-88.7861
Seagoville,32.653,-96.5456
Schofield Barracks,21.4936,-158.0617
Gibsonton,27.826,-82.3761
McAlester,34.9257,-95.7734
Amsterdam,42.942,-74.1906
Kingsland,30.8194,-81.7216
Lake Ronkonkoma,40.8297,-73.1128
Lenoir,35.9094,-81.5249
St. Marys,30.7567,-81.5722
Cudahy,42.9467,-87.8641
Trinity,28.1809,-82.6582
Steiner Ranch,30.3654,-97.896
Menasha,44.2125,-88.4271
Lebanon,44.5317,-122.9071
Willimantic,41.7171,-72.2114
St. Michael,45.2014,-93.692
Sycamore,41.9957,-88.6821
North Druid Hills,33.8185,-84.3254
Upper Grand Lagoon,30.169,-85.7407
Charleston,39.4842,-88.1781
Colonial Heights,37.265,-77.3969
Blythe,33.6219,-114.6195
Steubenville,40.3653,-80.6519
Jacksonville,39.7292,-90.2317
Burke Centre,38.7903,-77.2999
Natchitoches,31.7315,-93.0975
Ashtabula,41.8805,-80.7984
Canby,45.2652,-122.6867
Bostonia,32.8189,-116.948
La Marque,29.3683,-94.9941
Scarsdale,40.9902,-73.7773
Maryland City,39.1016,-76.8051
Boone,36.2111,-81.6669
White Settlement,32.7554,-97.4605
Sevierville,35.8872,-83.5678
Roosevelt,40.6797,-73.5837
Castaic,34.4818,-118.6316
Alice,27.7556,-98.0653
Alton,26.2884,-98.3098
Centralia,46.7223,-122.9696
Crowley,32.5781,-97.3585
Oconomowoc,43.0996,-88.4948
Redland,39.1339,-77.1464
Dumont,40.9452,-73.9923
Laurel,37.6375,-77.5062
Farmington,37.7822,-90.4282
Shorewood,41.5169,-88.2146
McKeesport,40.3418,-79.844
Cohoes,42.7732,-73.7077
Cary,42.2129,-88.2494
Bay City,28.9838,-95.9601
Groveland,28.6098,-81.8246
Cullman,34.1775,-86.8407
North Aurora,41.8086,-88.3414
Ocean Acres,39.743,-74.2805
North Canton,40.8742,-81.3971
Panama City Beach,30.237,-85.8776
Tiffin,41.1165,-83.1805
Bon Air,37.5187,-77.5713
Gretna,29.9101,-90.0515
Godfrey,38.9577,-90.2156
El Dorado,33.2184,-92.664
Cameron Park,38.6738,-120.9872
Calverton,39.0578,-76.9488
Winder,33.9917,-83.7218
Troy,31.8021,-85.9664
Anoka,45.2099,-93.3893
Eastlake,41.6581,-81.4322
New River,33.8835,-112.0858
Brownsville,25.8216,-80.2417
Mount Washington,38.043,-85.5551
Spanish Lake,38.7884,-90.2077
Idylwood,38.8896,-77.2056
Iselin,40.5697,-74.3172
Estelle,29.8447,-90.1021
Bethpage,40.7495,-73.4856
Wayne,42.2774,-83.3877
New Philadelphia,40.486,-81.4401
Bryn Mawr-Skyway,47.4949,-122.241
Takoma Park,38.981,-77.0028
Humacao,18.152,-65.8204
Kirksville,40.1986,-92.5752
Pataskala,40.011,-82.7155
St. Matthews,38.2497,-85.6384
Cortland,42.6004,-76.1784
Havelock,34.9078,-76.8987
Jenison,42.9063,-85.8269
Coalinga,36.142,-120.3242
Laguna Woods,33.6099,-117.7299
Lemont,41.6695,-87.9838
Goodlettsville,36.333,-86.7026
Woodcrest,33.8789,-117.3687
Lake Butler,28.4862,-81.546
New Castle,39.9191,-85.3697
Centerton,36.3566,-94.2971
Anacortes,48.4878,-122.6292
Glassmanor,38.8181,-76.9833
Hope Mills,34.971,-78.9597
Norcross,33.9379,-84.2065
Fate,32.943,-96.3858
Ammon,43.4745,-111.9568
Morganton,35.7408,-81.7002
Brenham,30.1584,-96.3966
Oak Grove,45.4156,-122.6349
Laurel,31.6956,-89.1449
South Ogden,41.1722,-111.9576
Wahiawa,21.5012,-158.0178
Mount Holly,35.3136,-81.0073
Boerne,29.7847,-98.7292
Streetsboro,41.2396,-81.3456
Milledgeville,33.0874,-83.2414
Stuart,27.1959,-80.2444
Woodmere,40.6375,-73.7219
West Columbia,33.9932,-81.0936
Bellaire,29.704,-95.4621
Beckley,37.7877,-81.1841
Fulshear,29.693,-95.8804
Pinehurst,35.1922,-79.4684
El Segundo,33.917,-118.4018
Fort Thomas,39.0801,-84.4518
Murray,36.6146,-88.3207
Clemson,34.6837,-82.8124
Glenvar Heights,25.709,-80.3155
Camano,48.1865,-122.4708
Lebanon,40.0324,-86.4551
Mebane,36.0852,-79.2736
Rio Linda,38.6875,-121.4417
Stafford,29.6271,-95.5654
Fairview Park,41.4419,-81.853
Hannibal,39.7098,-91.3939
El Reno,35.5429,-97.966
Danville,37.6418,-84.7777
Canon City,38.443,-105.2203
Defiance,41.2813,-84.3657
Massapequa Park,40.6817,-73.4496
Hinsdale,41.8007,-87.9273
Gainesville,33.639,-97.1487
East Riverdale,38.96,-76.9109
Avenel,40.5842,-74.2716
Rancho Mirage,33.7635,-116.4271
Ferndale,39.1869,-76.6331
Tifton,31.4624,-83.5203
Pinewood,25.8697,-80.2174
Aurora,41.3118,-81.345
Oswego,43.4516,-76.5005
Conyers,33.6646,-83.9966
Safety Harbor,28.008,-82.6964
Hillcrest Heights,38.8373,-76.9641
Terrell,32.734,-96.2931
Gainesville,38.7931,-77.6347
Manassas Park,38.7709,-77.4429
Groves,29.9457,-93.9164
Los Lunas,34.8115,-106.7803
Norwalk,41.2443,-82.6088
Ashwaubenon,44.4796,-88.0889
Myrtle Grove,30.4158,-87.3027
Huntington,40.881,-85.5063
Bristol,36.6181,-82.1604
Belle Glade,26.6916,-80.6656
Mattoon,39.4774,-88.3623
Adelphi,39.0017,-76.9649
Flowing Wells,32.2937,-111.011
Marion,37.7345,-88.942
Live Oak,36.986,-121.9804
Damascus,39.2701,-77.1957
Siloam Springs,36.1844,-94.5315
Shelbyville,38.2067,-85.2292
Kaukauna,44.2773,-88.2641
Calhoun,34.491,-84.9386
West Haven,41.2083,-112.0541
New Milford,40.9337,-74.0196
Easton,38.776,-76.0701
Farmingville,40.839,-73.0404
Clayton,38.6444,-90.3303
Vincennes,38.6759,-87.5102
Mount Vernon,40.3854,-82.4737
Bridgeview,41.7403,-87.8067
Villa Rica,33.7294,-84.9177
Pendleton,45.6757,-118.8201
Wixom,42.5243,-83.5346
Truckee,39.3455,-120.1848
Aberdeen,46.9757,-123.8094
Westchester,41.8492,-87.8906
Madison,40.7586,-74.4169
Pampa,35.5479,-100.9651
Buford,34.1192,-83.9903
Port Washington,40.8268,-73.6765
Ada,34.7662,-96.6681
Graham,36.0589,-79.3894
Anna,33.3472,-96.5508
Laconia,43.5725,-71.4775
La Vista,41.1816,-96.0664
Storrs,41.8083,-72.2514
Moraga,37.8439,-122.1225
Country Club Hills,41.5636,-87.7251
Fort Carson,38.7095,-104.772
Donna,26.1468,-98.0559
Hernando,34.85,-89.9921
Ukiah,39.1464,-123.2105
Menomonie,44.8893,-91.9084
Centerville,40.9284,-111.8848
Bull Run,38.7802,-77.5204
Powder Springs,33.8659,-84.684
Hueytown,33.4239,-87.022
Princeton,33.1778,-96.5044
Ocean Pointe,21.3145,-158.0289
Millbrook,32.5027,-86.3737
East Highland Park,37.577,-77.3865
Lake St. Louis,38.7846,-90.7886
Washougal,45.5825,-122.3451
Dallas,44.9221,-123.313
Long Beach,30.3608,-89.1651
Palmetto Estates,25.6211,-80.3616
Four Corners,44.929,-122.9732
Bellmore,40.6569,-73.5285
Humble,29.9921,-95.2655
Fairview Heights,38.5974,-90.0053
Red Wing,44.5817,-92.6036
Johnstown,40.3499,-104.9482
Beaver Dam,43.4688,-88.8309
Morton,40.6135,-89.4669
Bluffdale,40.4744,-111.9381
Hampton Bays,40.8695,-72.5225
Celina,33.3154,-96.7941
Ojus,25.9563,-80.1606
Sunland Park,31.8201,-106.5958
Cloverly,39.1064,-76.9995
Douglas,31.3602,-109.5394
Clearlake,38.9589,-122.633
Vienna,38.8996,-77.2597
Lake Mary,28.7592,-81.336
McKinleyville,40.9488,-124.0857
Walnut Park,33.9682,-118.222
South Venice,27.0444,-82.4155
Center Point,33.6447,-86.6852
Dyer,41.4977,-87.509
Heber,40.507,-111.3986
Addison,32.959,-96.8355
Vincent,34.0983,-117.9238
Wolf Trap,38.9395,-77.2842
Artesia,33.8676,-118.0805
Ham Lake,45.2545,-93.2039
Pearl River,41.0615,-74.0047
Fillmore,34.3989,-118.9174
North Decatur,33.8074,-84.2889
South Houston,29.6611,-95.2285
Grosse Pointe Woods,42.4366,-82.8987
Troutdale,45.5372,-122.3955
New Port Richey,28.2468,-82.717
Sunnyside,46.3157,-120.0058
North Arlington,40.7874,-74.1273
Stanford,37.4252,-122.1674
Fort Hunt,38.7361,-77.0589
Poplar Bluff,36.7632,-90.4135
Albemarle,35.3594,-80.1915
Lemay,38.5325,-90.2845
Opa-locka,25.8997,-80.2551
Susanville,40.4206,-120.6132
Sayville,40.7478,-73.084
Crawfordsville,40.0428,-86.8976
Mercedes,26.1533,-97.9128
Olivehurst,39.0795,-121.5566
Welby,39.8403,-104.9655
Vero Beach,27.6463,-80.393
Hermitage,41.2305,-80.4413
Dyersburg,36.0465,-89.3777
Jasper,38.3933,-86.9402
Payson,34.2433,-111.3195
Hibbing,47.398,-92.9486
La Grange,41.8072,-87.8741
Fairburn,33.5496,-84.5914
Tahlequah,35.9112,-94.977
Griffith,41.5277,-87.4239
Radford,37.1229,-80.5587
Floral Park,40.7227,-73.7029
Aberdeen,39.5151,-76.1733
Lake Wales,27.9195,-81.5961
Taylor,30.5729,-97.4268
Americus,32.0736,-84.2248
Warrington,30.3835,-87.2946
Frankfort,40.281,-86.5212
Colonial Park,40.2987,-76.8069
Spanish Springs,39.6568,-119.6694
Fullerton,40.6309,-75.4834
Calera,33.1254,-86.7449
Buffalo,45.1794,-93.8644
Parkway,38.4993,-121.452
South River,40.4455,-74.3783
Clarksburg,39.2862,-80.3232
Dublin,32.536,-82.928
Mount Pleasant,33.1586,-94.9727
Red Hill,33.7777,-79.0111
River Falls,44.8609,-92.6247
Sikeston,36.8854,-89.5877
Bay Village,41.4851,-81.9317
Grandville,42.9004,-85.7564
Prospect Heights,42.1039,-87.9267
Kings Park,40.8881,-73.2475
Washington,40.705,-89.434
Summerfield,38.9042,-76.8678
Gatesville,31.4445,-97.7317
West Richland,46.3115,-119.3999
Murraysville,34.2919,-77.8429
Middleburg Heights,41.3696,-81.815
Hot Springs Village,34.6566,-92.9643
Muscle Shoals,34.7432,-87.6343
Ripon,37.7417,-121.131
Fremont,41.3535,-83.1147
Firestone,40.1565,-104.9494
The Dalles,45.6053,-121.1818
Saraland,30.8479,-88.1004
Rutland,43.6092,-72.9783
Stallings,35.1088,-80.6598
Marco Island,25.933,-81.6993
Bellevue,44.4592,-87.955
New Haven,41.0676,-85.0174
Coos Bay,43.3789,-124.233
Gardendale,33.6677,-86.8069
Overland,38.6966,-90.3689
Warsaw,41.2448,-85.8465
Richmond Hill,31.9012,-81.3125
Fort Drum,44.045,-75.7845
Berea,34.8802,-82.465
Aldine,29.9123,-95.3784
Opelousas,30.5252,-92.0816
Coto de Caza,33.5959,-117.586
Waterville,44.5441,-69.6624
Fort Mohave,35.0004,-114.5748
St. Simons,31.1775,-81.3857
Mountain Home,43.1324,-115.697
Hollins,37.3434,-79.9534
Dixon,41.8439,-89.4794
Dickson,36.0637,-87.3665
New Cassel,40.7602,-73.5649
Mount Dora,28.8142,-81.6344
Sulphur Springs,33.1421,-95.6122
Lithia Springs,33.7811,-84.6487
Jamestown,46.9063,-98.6937
Kerman,36.7248,-120.0625
Glenmont,39.0698,-77.0467
Holly Springs,34.1681,-84.4847
Talladega,33.4333,-86.0986
Stone Ridge,38.9294,-77.5557
Westbury,40.7599,-73.5891
Highland Village,33.0897,-97.0615
Glenn Heights,32.5506,-96.8548
Mount Clemens,42.5977,-82.8821
Isla Vista,34.4128,-119.8614
Elkton,39.6066,-75.8209
White Center,47.5086,-122.3479
Hewitt,31.452,-97.196
Auburndale,28.0963,-81.8012
Discovery Bay,37.9063,-121.599
Los Osos,35.3065,-120.8242
Newton,41.6963,-93.0403
Lady Lake,28.9241,-81.9299
Macomb,40.4709,-90.6807
Mitchell,43.7294,-98.0337
Wailuku,20.8834,-156.5059
Chickasha,35.0409,-97.9474
La Palma,33.8504,-118.0407
Alpine,32.8439,-116.7585
Shively,38.197,-85.8136
Seaford,40.6678,-73.4922
Rossville,39.3572,-76.4767
Seymour,35.8783,-83.7669
Fort Leonard Wood,37.7562,-92.1274
Weston,44.8906,-89.5487
Grovetown,33.4503,-82.2073
Southchase,28.3793,-81.3903
Mastic,40.8096,-72.8479
Seven Oaks,34.0475,-81.1435
Monroe,39.4461,-84.3667
Live Oak,29.5545,-98.3404
Cherryland,37.6792,-122.1038
Azalea Park,28.5473,-81.2956
Greenwood Village,39.6153,-104.9131
Indianola,41.3629,-93.5652
Brooklyn Park,39.217,-76.6174
Hugo,45.1671,-92.9588
Niceville,30.529,-86.4748
Hartford,43.3223,-88.3784
Wilmington Island,32.0033,-80.9752
Candelaria,18.4042,-66.2175
Batavia,42.9987,-78.1802
Rio Grande City,26.3808,-98.8215
Princeton Meadows,40.3347,-74.5651
Berea,37.5904,-84.2898
Scottsboro,34.6438,-86.0491
Chubbuck,42.9263,-112.4623
Grain Valley,39.0171,-94.2084
Glenn Dale,38.9833,-76.804
Lynden,48.9502,-122.4545
Carthage,37.1503,-94.3225
Springdale,39.8769,-74.9724
Uvalde,29.2152,-99.7782
Three Lakes,25.6415,-80.4
Greeneville,36.168,-82.8197
Glasgow,39.6015,-75.7473
Mastic Beach,40.7664,-72.8369
Yankton,42.8901,-97.3927
Eden,36.5027,-79.7412
Hayden,47.768,-116.804
Port Orchard,47.5163,-122.661
Hartselle,34.4391,-86.9396
Tenafly,40.9176,-73.9532
Asbury Park,40.2226,-74.0119
Roanoke Rapids,36.4452,-77.649
Norridge,41.9637,-87.8231
Harper Woods,42.439,-82.9293
Johnson City,42.123,-75.9624
Jackson,37.3792,-89.6522
Traverse City,44.7546,-85.6038
Northview,43.0427,-85.6016
Dentsville,34.0754,-80.9547
Laurinburg,34.7602,-79.4773
Thibodaux,29.7949,-90.8146
Franklin Park,40.5903,-80.0999
Bradley,41.1641,-87.8452
Berkley,42.4986,-83.1853
Hazel Park,42.4619,-83.0977
Gloversville,43.0491,-74.3465
Kenmore,42.9646,-78.8713
Beech Grove,39.7157,-86.0871
Depew,42.9118,-78.7043
Spring Creek,40.745,-115.5983
Eloy,32.747,-111.5992
Pacific Grove,36.6188,-121.9259
Youngsville,30.0963,-91.9968
Andover,37.6873,-97.1352
Elk Plain,47.0425,-122.3663
Southern Pines,35.1927,-79.4039
Vandalia,39.8791,-84.193
Piney Green,34.7498,-77.3208
Phillipsburg,40.6894,-75.1821
Tonawanda,43.0105,-78.8805
Camp Pendleton South,33.2329,-117.393
North New Hyde Park,40.746,-73.6876
Clarksdale,34.1933,-90.5693
Greenlawn,40.8632,-73.3646
Bemidji,47.4828,-94.8797
Longwood,28.7014,-81.3487
Henderson,36.3256,-78.4151
West Park,25.984,-80.1923
Worthington,40.095,-83.0209
Hereford,34.8225,-102.4001
Front Royal,38.926,-78.1838
Swansea,38.5507,-89.9858
Dayton,39.2592,-119.5653
Riverdale,33.5639,-84.4103
South Farmingdale,40.7175,-73.4473
Halawa,21.3753,-157.9185
Greensburg,40.3113,-79.5445
West University Place,29.7157,-95.4321
Highland Park,40.5006,-74.4283
Williamstown,39.6874,-74.9786
Tanque Verde,32.2687,-110.7437
Mineral Wells,32.8169,-98.0776
Glasgow,37.0048,-85.9263
Sterling,41.7996,-89.6956
Fairview,40.8182,-74.0022
California City,35.1578,-117.8721
Metuchen,40.5424,-74.3628
Lebanon,37.6717,-92.6603
Hendersonville,35.3247,-82.4575
Boulder City,35.8407,-114.9257
Great Bend,38.3593,-98.8015
Grimes,41.6779,-93.7947
Broadlands,39.0168,-77.5167
Highland Springs,37.5516,-77.3285
Sierra Vista Southeast,31.4525,-110.216
Whitefish Bay,43.1131,-87.9003
Ramsey,41.0595,-74.1454
Oldsmar,28.0506,-82.6698
Bradley Gardens,40.5711,-74.6678
Gantt,34.7837,-82.4027
Glen Allen,37.666,-77.4838
Ferndale,48.8526,-122.5894
Brunswick,31.1449,-81.4746
Alexander City,32.9229,-85.9358
Wildwood,28.7752,-82.0075
Greendale,42.9371,-88.0018
Lake Stickney,47.8733,-122.2582
Deming,32.2631,-107.7525
Fort Payne,34.4559,-85.6965
Vail,32.0217,-110.6937
Gulf Shores,30.2764,-87.7017
Ladson,33.0093,-80.1078
White Oak,39.0451,-76.9885
Chelsea,33.3262,-86.63
Owosso,42.9955,-84.176
Antioch,42.4742,-88.0721
Fraser,42.5388,-82.9496
Hammonton,39.6572,-74.7678
Great Falls,39.011,-77.3013
Salida,37.7083,-121.0842
Waunakee,43.1829,-89.4447
Monroe,33.799,-83.7161
Fruitville,27.3328,-82.4616
Canyon,34.9911,-101.919
Parlier,36.6087,-119.5434
Palmview,26.2318,-98.3823
Pineville,31.3414,-92.4096
Davidson,35.484,-80.8247
Salem Lakes,42.5366,-88.1306
Havre de Grace,39.548,-76.1146
Moultrie,31.1591,-83.7708
Hershey,40.2806,-76.6458
Ewa Beach,21.3181,-158.0073
Mount Vernon,38.314,-88.9174
Washington,38.5515,-91.0154
Morris,41.3749,-88.4304
Anderson Creek,35.2657,-78.958
Rendon,32.5789,-97.2349
Weigelstown,39.9852,-76.8306
Chippewa Falls,44.9358,-91.3902
Eggertsville,42.9665,-78.8065
East Milton,30.6175,-86.9636
West Freehold,40.2324,-74.2943
Dumas,35.8613,-101.9642
Red Bluff,40.1735,-122.2413
Corinth,34.9474,-88.5143
Key Biscayne,25.6908,-80.1653
Jericho,40.7875,-73.5416
Robbinsdale,45.0261,-93.3332
Greenwood,33.5126,-90.1993
Middlesex,40.5744,-74.5011
Scottsbluff,41.8684,-103.6616
Kemp Mill,39.0412,-77.0215
Hutchinson,44.8855,-94.3768
Short Hills,40.7389,-74.3278
Hudson,44.9639,-92.7312
Belvedere Park,33.7489,-84.2599
Artondale,47.3021,-122.6406
Falls Church,38.8847,-77.1751
Wilkinsburg,40.4442,-79.8733
Hickory Hills,41.7248,-87.828
Bensville,38.6176,-77.0077
Lockhart,29.8785,-97.6831
Lemon Hill,38.5172,-121.4573
Colesville,39.073,-77.001
Reidsville,36.3376,-79.6725
East Rancho Dominguez,33.8949,-118.1956
Clarkston,33.8117,-84.2403
Lindenhurst,42.4175,-88.0257
Belmont,35.2212,-81.0401
Washington Court House,39.5381,-83.4281
Natchez,31.5437,-91.3867
Palmer Ranch,27.2286,-82.4672
Lilburn,33.8897,-84.1364
Sunset,25.706,-80.353
Chicago Ridge,41.7034,-87.7795
Groveton,38.7605,-77.098
Ozark,31.4508,-85.6473
Hopatcong,40.9541,-74.6593
Moorestown-Lenola,39.9659,-74.9643
Ardmore,40.0033,-75.2947
Royal Kunia,21.4053,-158.0318
Lockhart,28.627,-81.4354
Newport,39.0856,-84.4868
Lake Arbor,38.9105,-76.8304
Black Forest,39.0608,-104.6752
Jasper,33.8508,-87.271
Whitewater,42.8372,-88.7341
North Fair Oaks,37.4754,-122.2034
North Mankato,44.181,-94.0391
Buda,30.0758,-97.8487
Midlothian,41.6254,-87.7243
Gonzalez,30.5822,-87.2906
Viera West,28.2467,-80.7387
Lebanon,43.6353,-72.2531
North Auburn,38.9306,-121.082
Forest Park,41.8683,-87.8157
Bellair-Meadowbrook Terrace,30.1796,-81.7375
Thonotosassa,28.0464,-82.291
Lamont,35.2659,-118.9159
Chatham,39.6733,-89.6934
Mill Valley,37.9086,-122.5421
Monticello,45.2991,-93.7996
Mercerville,40.236,-74.6917
Edgewater,40.8237,-73.974
Fort Bliss,31.8396,-106.3747
Yulee,30.635,-81.5678
Flower Hill,39.1676,-77.1824
East Cleveland,41.5317,-81.5794
Bainbridge,30.9052,-84.5732
Brookside,39.6665,-75.7152
Hawaiian Gardens,33.8304,-118.0728
Willowick,41.6342,-81.4678
Jefferson Valley-Yorktown,41.318,-73.8008
Lakeland North,47.3374,-122.2812
Gladeview,25.8395,-80.2368
Arlington,35.2594,-89.668
Waianae,21.4568,-158.1758
California,38.2969,-76.4949
Frederick,40.1088,-104.9701
Pierre,44.3748,-100.3205
Somerton,32.6007,-114.6994
Luling,29.9008,-90.3523
East Wenatchee,47.4174,-120.2822
Elizabethton,36.3367,-82.237
Federal Heights,39.8651,-105.0154
Chaparral,32.0442,-106.406
McFarland,35.6781,-119.2413
Livingston,37.3875,-120.7248
Latham,42.7427,-73.7497
Allouez,44.4721,-88.0259
Wauconda,42.2749,-88.1359
Covington,33.6049,-83.8463
Huron,44.3623,-98.2094
Brainerd,46.3553,-94.1983
New Ulm,44.312,-94.4685
Cayey,18.115,-66.163
Chesterton,41.5997,-87.055
Wood Dale,41.9668,-87.9808
College Park,33.6363,-84.464
Alexandria,45.8776,-95.3767
Jacksonville,31.9642,-95.2617
Sharonville,39.2825,-84.4071
Forest City,28.6619,-81.4444
Dunmore,41.4152,-75.6072
Lyndhurst,41.5172,-81.4922
Huntington,38.7916,-77.074
Sterling,40.6205,-103.1925
Roselle Park,40.6653,-74.2666
Fergus Falls,46.2854,-96.0758
Hobe Sound,27.0729,-80.1425
Athens,35.4573,-84.6045
Willow Grove,40.1469,-75.1174
Red Oak,32.5212,-96.7866
University Heights,41.4948,-81.535
St. James,40.8761,-73.1521
Olean,42.0819,-78.4321
Hidalgo,26.109,-98.2464
Moberly,39.4179,-92.4364
Circleville,39.6063,-82.9334
Manor,30.3562,-97.5227
Kettering,38.8888,-76.7889
Shepherdsville,37.9813,-85.7007
McPherson,38.3714,-97.6605
Maumee,41.5696,-83.6636
New Franklin,40.9525,-81.5838
Sun Lakes,33.2172,-111.8695
Waycross,31.2108,-82.3579
Avenal,36.0311,-120.1162
Miami Springs,25.8195,-80.2894
Powell,40.1689,-83.0829
Powell,36.0358,-84.0296
Alamo,37.8548,-122.0136
West Lealman,27.8192,-82.7384
Wells Branch,30.4433,-97.679
Sauk Rapids,45.5981,-94.1538
Cherry Hill Mall,39.9384,-75.0117
Bexley,39.965,-82.9343
Waimalu,21.3913,-157.9345
Kings Park West,38.8151,-77.296
Loganville,33.8353,-83.8958
St. Helens,45.8572,-122.8164
Beachwood,41.4759,-81.503
Teays Valley,38.4482,-81.9246
Verona,42.9892,-89.5383
Forest Hill,32.6619,-97.2662
South Sioux City,42.4627,-96.4125
Bellefontaine,40.3627,-83.763
Westmont,39.9082,-75.0551
Worthington,43.6281,-95.599
Beeville,28.4053,-97.749
Ephrata,40.1811,-76.1812
Coldwater,41.9465,-84.9989
Villas,26.5504,-81.8678
Destin,30.395,-86.4701
Brandermill,37.434,-77.6522
Auburn,38.895,-121.0777
Warrenville,41.8209,-88.1857
Shorewood,43.0913,-87.8864
Marshall,44.4488,-95.7897
Hazel Crest,41.5732,-87.6899
Bedford,38.8602,-86.4895
Cedar Lake,41.3696,-87.4389
Snoqualmie,47.5293,-121.8412
Beacon,41.5036,-73.9655
Minneola,28.6067,-81.7322
Mount Vernon,38.714,-77.1043
Dallas,33.9152,-84.8416
Lone Tree,39.5309,-104.8709
Canton,40.5632,-90.0409
McMinnville,35.6864,-85.7812
Olympia Heights,25.724,-80.3388
Warrensville Heights,41.4363,-81.5222
Channahon,41.421,-88.2599
Lakeland,35.2585,-89.7308
Franklin Park,40.4439,-74.5431
Melissa,33.2891,-96.5573
Echelon,39.8482,-74.9957
Callaway,30.1349,-85.5568
Shiloh,38.5534,-89.9161
Cayce,33.9459,-81.0429
Beach Park,42.426,-87.8583
Conway,28.4968,-81.3316
Marion,35.2035,-90.2059
Speedway,39.7937,-86.2481
Brecksville,41.3079,-81.6192
Santaquin,39.9708,-111.7941
Lakewood Park,27.539,-80.3865
Wyandanch,40.7496,-73.3633
South Charleston,38.3426,-81.7155
Endicott,42.098,-76.0639
New Carrollton,38.9656,-76.8775
Indiana,40.622,-79.1552
New Providence,40.6996,-74.4035
Oak Park,34.185,-118.7669
Lake Wylie,35.0997,-81.0678
Marietta,39.4241,-81.4465
Blytheville,35.9321,-89.9051
Connersville,39.6582,-85.141
Grass Valley,39.2238,-121.0522
Western Springs,41.8023,-87.9006
Port Neches,29.9765,-93.9459
Glen Carbon,38.758,-89.9822
Lake Forest Park,47.7574,-122.2864
Sault Ste. Marie,46.4817,-84.3723
Royse City,32.9762,-96.3175
La Grange Park,41.8308,-87.8723
Henderson,32.1576,-94.796
Seabrook,29.5751,-95.0235
Martinsville,36.6826,-79.8636
Hockessin,39.7837,-75.6815
Irondale,33.5439,-86.6606
Butler,40.8616,-79.8962
Lumberton,30.2562,-94.207
Glenpool,35.9488,-96.0052
Eatontown,40.2913,-74.0558
Englewood,39.8643,-84.307
Jupiter Farms,26.9222,-80.2189
Bothell East,47.8064,-122.1844
River Ridge,29.9593,-90.2202
Plover,44.4615,-89.5382
Marshall,39.1147,-93.201
Bardstown,37.8175,-85.455
King City,36.2164,-121.133
Newington,38.7358,-77.1993
Lewisville,36.103,-80.4166
Pottsville,40.6798,-76.2091
Rocky Point,40.9357,-72.9364
Atlantic Beach,30.3375,-81.4127
Palos Verdes Estates,33.7872,-118.3973
Nolensville,35.9572,-86.6719
Elfers,28.214,-82.723
Forrest City,35.0135,-90.7931
Kilgore,32.398,-94.8602
Lincolnwood,42.0054,-87.733
Coolidge,32.9363,-111.5254
Tehachapi,35.1276,-118.4744
Fort Campbell North,36.6631,-87.4764
Washington,40.1741,-80.2465
Avocado Heights,34.0391,-117.997
Glendale,43.1287,-87.9277
Nesconset,40.8467,-73.1522
Coatesville,39.9849,-75.82
Palmetto,27.5251,-82.5749
Kingston,41.2652,-75.8876
Fruita,39.1548,-108.7305
Lake Station,41.5729,-87.2599
Carpinteria,34.3962,-119.5118
Superior,39.934,-105.1588
Auburn,41.3666,-85.0559
Finneytown,39.2159,-84.5144
Los Alamos,35.8927,-106.2862
Smithfield,41.8349,-111.8265
Lahaina,20.8848,-156.6618
Bridgetown,39.1552,-84.6359
Woodinville,47.757,-122.1477
Las Vegas,35.6011,-105.2206
Clayton,39.8689,-84.3292
Maili,21.4133,-158.1701
Andrews,32.3207,-102.552
Blue Ash,39.248,-84.3827
McCalla,33.3023,-87.0302
Monfort Heights,39.1823,-84.6075
Lincoln,40.1508,-89.372
La Grande,45.3242,-118.0865
Sharon,41.234,-80.4998
Ridgefield Park,40.8543,-74.0201
Carnot-Moon,40.5187,-80.2178
Steamboat Springs,40.4777,-106.8243
Mounds View,45.1071,-93.2076
Rogers,45.1865,-93.5783
Iona,26.516,-81.9601
Stoughton,42.9237,-89.2225
Azle,32.8955,-97.5379
Claiborne,32.5379,-92.1981
Jennings,38.7231,-90.2644
Loveland,39.2677,-84.2733
Jensen Beach,27.2437,-80.2423
West Monroe,32.512,-92.1513
Moody,33.5986,-86.4963
North Palm Beach,26.8217,-80.0576
Soddy-Daisy,35.2571,-85.1739
Dover,40.5304,-81.4806
Harrison,36.2438,-93.1198
Newton,35.663,-81.2335
Grand Terrace,34.0312,-117.3132
Jacksonville,33.8088,-85.7545
Bedford,41.3919,-81.536
Annapolis Neck,38.9409,-76.4997
West Carrollton,39.6701,-84.2542
Rochester,42.6866,-83.1198
Portland,36.5921,-86.5239
Lansdowne,39.0844,-77.4839
Cambridge,38.5515,-76.0787
Solana Beach,32.9943,-117.2574
North Adams,42.6844,-73.1166
Parker,34.8513,-82.4512
Dorado,18.4657,-66.2726
St. Ann,38.7266,-90.3872
Green Valley,39.3414,-77.24
Meadville,41.6476,-80.1468
Miami,36.8878,-94.8711
Oatfield,45.4125,-122.594
Joppatowne,39.4181,-76.3516
Montgomeryville,40.2502,-75.2405
South Daytona,29.1657,-81.0055
Trenton,39.4792,-84.462
Larkspur,37.9393,-122.5312
Timberlake,37.3167,-79.2481
Bonita,32.6651,-117.0296
Sun Village,34.5596,-117.9558
Broussard,30.1396,-91.954
Overlea,39.3642,-76.5175
Claremont,43.379,-72.3368
Ridge,40.9068,-72.8816
Vadnais Heights,45.057,-93.0748
Sugarland Run,39.0309,-77.3762
Pell City,33.561,-86.2669
Big Bear City,34.2536,-116.7903
Home Gardens,33.8783,-117.5116
Naranja,25.5164,-80.4222
Beaufort,32.4597,-80.7235
Fords,40.5359,-74.3126
Cornelius,45.5188,-123.051
Woodhaven,42.132,-83.2374
Holiday City-Berkeley,39.9639,-74.2787
Valencia West,32.1355,-111.1123
Richton Park,41.4816,-87.7387
New Kingman-Butler,35.2645,-114.0091
Newcastle,47.5304,-122.1633
El Dorado,37.821,-96.8613
Levelland,33.5806,-102.3635
Chino Valley,34.7594,-112.412
Weddington,35.0228,-80.7383
Bloomsburg,41.0027,-76.4561
Grover Beach,35.1204,-120.6197
Florida City,25.4418,-80.4685
Webb City,37.1412,-94.4676
Urbana,39.3274,-77.3423
Cheval,28.1459,-82.5184
Northlake,41.9142,-87.9054
Braselton,34.1087,-83.8127
Holly Hill,29.2442,-81.0465
Red Bank,40.348,-74.0672
White House,36.4648,-86.6666
Guymon,36.6903,-101.4774
Harrison,39.2584,-84.7868
San Anselmo,37.9821,-122.5699
Vinings,33.8608,-84.4686
Greenville,40.1043,-84.6209
Fostoria,41.16,-83.4121
Santa Fe,29.3889,-95.1003
Orangeburg,33.4928,-80.8671
Suamico,44.6354,-88.0683
Fort Lewis,47.0955,-122.5674
Waconia,44.8422,-93.7896
Oakland,41.0313,-74.2408
St. Marys,41.4574,-78.5342
Rantoul,40.3031,-88.1549
Oneonta,42.4551,-75.0666
Brock Hall,38.8604,-76.7459
Eufaula,31.9102,-85.1505
Orange City,28.9348,-81.2881
Emeryville,37.8382,-122.2932
Cheney,47.4901,-117.579
Baker,30.5832,-91.1582
D'Iberville,30.4709,-88.9011
Port Royal,32.3557,-80.7029
Jefferson,34.1373,-83.6021
Mountain Home,36.3351,-92.384
Athens,32.2041,-95.8321
Fernandina Beach,30.6571,-81.4511
Lakeland South,47.2786,-122.2826
Fulton,38.8551,-91.951
Lakeside,37.6132,-77.4768
Dardenne Prairie,38.7565,-90.7319
Wickliffe,41.6072,-81.469
Moncks Corner,33.173,-80.0107
Lexington Park,38.2528,-76.4424
Mountain Park,33.8458,-84.1314
Grenada,33.7816,-89.813
Paradise Valley,33.5434,-111.9595
Amherst,41.4022,-82.2303
Trophy Club,33.004,-97.1899
Verde Village,34.7119,-111.9941
Winnetka,42.1064,-87.7421
Florham Park,40.7773,-74.3953
Dunkirk,42.4801,-79.3324
Salisbury,40.7454,-73.5604
Newington Forest,38.737,-77.2339
Artesia,32.8497,-104.4268
Goldenrod,28.6114,-81.2916
Justice,41.7495,-87.8345
San Marino,34.1224,-118.1132
Smyrna,39.2935,-75.6083
Borger,35.6598,-101.4012
Festus,38.2194,-90.4097
East Islip,40.7257,-73.1869
North Valley,35.1736,-106.6231
Ottawa,38.5996,-95.2636
Norwalk,41.4895,-93.6913
Byram,32.189,-90.2861
Nanakuli,21.3892,-158.1445
Branson,36.6509,-93.2636
Geneva,42.8645,-76.9826
Prairie Ridge,47.1438,-122.1408
Lake Tapps,47.2307,-122.1695
Kelso,46.1236,-122.8909
Cloquet,46.7221,-92.4923
Brown Deer,43.1743,-87.975
Gaffney,35.0743,-81.6552
Lindsay,36.2082,-119.0897
Enumclaw,47.2018,-121.9897
Tamalpais-Homestead Valley,37.8793,-122.5382
Mendota,36.7555,-120.3776
Melvindale,42.2802,-83.1782
Fort Atkinson,42.9253,-88.8442
Wilmington,39.4362,-83.8141
Sylacauga,33.178,-86.2605
Boone,42.0531,-93.877
Cascades,39.0464,-77.3874
Lake Norman of Catawba,35.5995,-80.984
Lake Los Angeles,34.6097,-117.8339
Kewanee,41.2399,-89.9264
Fortuna,40.5862,-124.1419
Georgetown,31.9849,-81.226
Pecos,31.3971,-103.5201
Riverview,42.1723,-83.1946
Troy,38.9708,-90.9714
Commerce,33.9963,-118.1519
Lakeland Village,33.648,-117.3706
Somerville,40.5696,-74.6092
Marysville,39.1518,-121.5835
Baraboo,43.4695,-89.7376
Cahokia,38.565,-90.1793
Escanaba,45.7477,-87.09
Neosho,36.8437,-94.3758
Mays Chapel,39.4343,-76.6516
Harrison,44.1935,-88.2941
Kingsburg,36.5244,-119.5602
Minooka,41.4507,-88.2791
Tucson Estates,32.1792,-111.1266
McComb,31.2442,-90.4716
Herrin,37.7983,-89.0305
North St. Paul,45.0137,-92.9995
North Merrick,40.6871,-73.5615
East Renton Highlands,47.4718,-122.0854
Derby,41.3265,-73.0833
Leeds,33.5436,-86.5639
Sandy,45.3988,-122.2697
Poquoson,37.1318,-76.3568
Doctor Phillips,28.4474,-81.4914
Sarasota Springs,27.3087,-82.4746
Robertsville,40.3395,-74.2939
Shady Hills,28.4042,-82.5468
Crestwood,38.5569,-90.3783
Patchogue,40.7621,-73.0185
Robinson,31.4501,-97.1201
Tega Cay,35.039,-81.0111
Cypress Lake,26.5392,-81.8999
Tomball,30.0951,-95.6194
Grantsville,40.6148,-112.4777
Lake City,30.1901,-82.6471
Fairfax Station,38.7942,-77.3358
Scotts Valley,37.0555,-122.0118
Moss Point,30.4241,-88.5289
Webster,29.5317,-95.1188
El Campo,29.2,-96.2723
Conneaut,41.9275,-80.5685
Beatrice,40.2736,-96.7455
Port Washington,43.3846,-87.8855
Ocean Pines,38.3851,-75.1487
Sedro-Woolley,48.5112,-122.2321
Woodward,36.4247,-99.4058
Hamilton Square,40.2248,-74.6526
Miller Place,40.9374,-72.9864
Accokeek,38.6745,-77.0023
Madison,38.7581,-85.3973
New Kensington,40.5712,-79.7523
Effingham,39.1205,-88.5509
Alum Rock,37.3694,-121.8238
Rio Grande,18.3789,-65.8388
Jefferson Hills,40.2926,-79.9329
Canovanas,18.3693,-65.9009
Manati,18.4283,-66.4823
Manchester,37.4902,-77.5396
Jerome,42.7179,-114.5159
Honeygo,39.4055,-76.4282
El Sobrante,33.8724,-117.4624
Mitchellville,38.9358,-76.8146
Newman,37.3156,-121.0212
Portales,34.1754,-103.3565
New Baltimore,42.6904,-82.7398
Minden,32.6187,-93.2762
Wyndham,37.6924,-77.6123
Streator,41.1245,-88.8297
Edgewood,47.2309,-122.2832
Lewisburg,35.451,-86.7901
Choctaw,35.4802,-97.2666
Middleburg,30.0502,-81.9011
Hasbrouck Heights,40.8618,-74.0741
Archdale,35.9032,-79.9591
Palos Heights,41.6637,-87.7958
Cano Martin Pena,18.4309,-66.0507
Cedarburg,43.299,-87.9887
Union,38.4399,-90.9927
Manorville,40.8574,-72.7915
Blackfoot,43.194,-112.3454
Glen Rock,40.9601,-74.125
Macedonia,41.3147,-81.4989
Grafton,43.3204,-87.948
Gonzales,30.2132,-90.9234
Cottonwood,34.7195,-112.0016
Valley Falls,41.9233,-71.3924
Centralia,38.5224,-89.1232
Garden City,43.6526,-116.2743
Stony Brook,40.9061,-73.1278
West Plains,36.7377,-91.868
Weatherford,35.538,-98.6853
Upper Montclair,40.8433,-74.2006
Spearfish,44.4909,-103.8155
Arkansas City,37.0726,-97.0385
River Edge,40.9269,-74.0387
Viera East,28.2613,-80.7149
Gladstone,45.3864,-122.5934
Washington,38.6586,-87.1591
Riviera Beach,39.1623,-76.5257
Largo,38.88,-76.8289
South Miami,25.7079,-80.2952
Martinsville,40.603,-74.5751
Somersworth,43.2534,-70.8856
Manchester,35.463,-86.0774
Stuarts Draft,38.0188,-79.0354
Dranesville,38.9955,-77.3693
Fenton,42.7994,-83.7144
Yeadon,39.9325,-75.2527
Hawaiian Paradise Park,19.5828,-154.9695
Camp Verde,34.569,-111.856
Niles,41.8346,-86.2473
La Homa,26.2796,-98.3575
Salem,40.9049,-80.8492
Crowley,30.2175,-92.3752
